X,Y,OBJECTID,stop_id,stop_code,stop_name,stop_lat,stop_lon
-84.469302,33.754553,1,907933,27,HAMILTON E HOLMES STATION,33.754553,-84.469302
-84.445329,33.7533280000001,2,908023,28,WEST LAKE STATION,33.753328,-84.445329
-84.445568,33.753247,3,907906,39,WEST LAKE STATION,33.753247,-84.445568
-84.469824,33.7545170000001,4,907907,40,HAMILTON E HOLMES STATION,33.754517,-84.469824
-84.344213,33.9208620000001,5,908051,53,DUNWOODY STATION,33.920862,-84.344213
-84.369357,33.823385,6,908054,57,LINDBERGH CENTER STATION,33.823385,-84.369357
-84.3693239999999,33.823492,7,908055,58,LINDBERGH CENTER STATION,33.823492,-84.369324
-84.3442679999999,33.9211300000001,8,908047,61,DUNWOODY STATION,33.92113,-84.344268
-84.3392449999999,33.860329,9,908186,83,BROOKHAVEN-OGLETHORPE STATION,33.860329,-84.339245
-84.339397,33.859989,10,908187,84,BROOKHAVEN-OGLETHORPE STATION,33.859989,-84.339397
-84.387414,33.7896690000001,11,906369,111,ARTS CENTER STATION,33.789669,-84.387414
-84.3872719999999,33.788828,12,906370,112,ARTS CENTER STATION,33.788828,-84.387272
-84.386342,33.7812470000001,13,908374,133,MIDTOWN  STATION,33.781247,-84.386342
-84.386353,33.7813550000001,14,908375,134,MIDTOWN STATION,33.781355,-84.386353
-84.312937,33.7652410000001,15,908566,185,EAST LAKE STATION,33.765241,-84.312937
-84.3134259999999,33.7651960000001,16,908567,186,EAST LAKE STATION,33.765196,-84.313426
-84.295417,33.7746990000001,17,908475,193,DECATUR STATION,33.774699,-84.295417
-84.3408249999999,33.761803,18,908476,195,EDGEWOOD-CANDLER PARK STATION,33.761803,-84.340825
-84.385915,33.750161,19,908618,198,GEORGIA STATE STATION,33.750161,-84.385915
-84.385882,33.750143,20,908696,201,GEORGIA STATE STATION,33.750143,-84.385882
-84.340456,33.7618660000001,21,908699,204,EDGEWOOD-CANDLER PARK STATION,33.761866,-84.340456
-84.2953189999999,33.774681,22,908700,206,DECATUR STATION,33.774681,-84.295319
-84.4405419999999,33.677424,23,908628,217,EAST POINT STATION,33.677424,-84.440542
-84.4287679999999,33.70088,24,908629,218,LAKEWOOD-FT MCPHERSON STATION,33.70088,-84.428768
-84.413653,33.736564,25,908704,219,WEST END STATION,33.736564,-84.413653
-84.413663,33.7357050000001,26,908705,220,WEST END STATION,33.735705,-84.413663
-84.428865,33.700298,27,908706,221,LAKEWOOD-FT MCPHERSON STATION,33.700298,-84.428865
-84.440704,33.6769850000001,28,908707,222,EAST POINT STATION,33.676985,-84.440704
-84.252151,33.7727640000001,29,908709,224,KENSINGTON STATION,33.772764,-84.252151
-84.251607,33.7726470000001,30,908634,232,KENSINGTON STATION,33.772647,-84.251607
-84.3583869999999,33.845307,31,908717,243,LENOX STATION,33.845307,-84.358387
-84.367629,33.84781,32,908718,244,BUCKHEAD STATION,33.84781,-84.367629
-84.367716,33.847944,33,908639,249,BUCKHEAD STATION,33.847944,-84.367716
-84.358235,33.8453880000001,34,906827,250,LENOX STATION,33.845388,-84.358235
-84.428873,33.772159,35,907960,269,BANKHEAD STATION,33.772159,-84.428873
-84.428906,33.772436,36,907961,270,BANKHEAD STATION,33.772436,-84.428906
-84.387258,33.7714720000001,37,907913,280,NORTH AVENUE STATION,33.771472,-84.387258
-84.3872039999999,33.7717410000001,38,907914,281,NORTH AVENUE STATION,33.771741,-84.387204
-84.414774,33.81354,39,906311,355,HOWELL MILL RD @ KIPLING DR,33.81354,-84.414774
-84.281166,33.902411,40,908862,375,DORAVILLE STATION,33.902411,-84.281166
-84.28061,33.902787,41,908845,384,DORAVILLE STATION,33.902787,-84.28061
-84.35189,33.910757,42,908872,394,MEDICAL CENTER STATION,33.910757,-84.35189
-84.351759,33.910739,43,908885,399,MEDICAL CENTER STATION,33.910739,-84.351759
-84.387504,33.766111,44,908911,429,CIVIC CENTER STATION,33.766111,-84.387504
-84.387504,33.766236,45,908912,430,CIVIC CENTER STATION,33.766236,-84.387504
-84.403902,33.7566130000001,46,908958,470,VINE CITY STATION,33.756613,-84.403902
-84.4040209999999,33.7566130000001,47,908959,471,VINE CITY STATION,33.756613,-84.404021
-84.41723,33.7564780000001,48,908963,485,ASHBY STATION,33.756478,-84.41723
-84.4173279999999,33.7564770000001,49,908964,486,ASHBY STATION,33.756477,-84.417328
-84.4250299999999,33.7173000000001,50,908301,693,OAKLAND CITY STATION,33.7173,-84.42503
-84.4251379999999,33.716978,51,908302,694,OAKLAND CITY STATION,33.716978,-84.425138
-84.357253,33.944377,52,908480,730,NORTH SPRINGS STATION,33.944377,-84.357253
-84.397215,33.756179,53,908435,796,GWCC-CNN CENTER STATION,33.756179,-84.397215
-84.391397,33.753837,54,908981,797,FIVE POINTS STATION,33.753837,-84.391397
-84.3756749999999,33.7499510000001,55,908436,798,KING MEMORIAL STATION,33.749951,-84.375675
-84.352762,33.7574510000001,56,908437,799,INMAN PARK-REYNOLDSTOWN STATION,33.757451,-84.352762
-84.281487,33.7755540000001,57,908438,800,AVONDALE STATION,33.775554,-84.281487
-84.2289059999999,33.7698560000001,58,908515,801,INDIAN CREEK STATION,33.769856,-84.228906
-84.2298739999999,33.769893,59,908516,802,INDIAN CREEK STATION,33.769893,-84.229874
-84.2824659999999,33.7752140000001,60,908691,803,AVONDALE STATION,33.775214,-84.282466
-84.353066,33.7572270000001,61,908692,804,INMAN PARK-REYNOLDSTOWN STATION,33.757227,-84.353066
-84.3759899999999,33.749853,62,908693,805,KING MEMORIAL STATION,33.749853,-84.37599
-84.391876,33.7541230000001,63,908990,806,FIVE POINTS STATION,33.754123,-84.391876
-84.3972909999999,33.7561870000001,64,908694,807,GWCC-CNN CENTER STATION,33.756187,-84.397291
-84.446198,33.640831,65,908695,808,AIRPORT STATION,33.640831,-84.446198
-84.448656,33.6505770000001,66,908599,809,COLLEGE PARK STATION,33.650577,-84.448656
-84.395545,33.7489380000001,67,908600,810,GARNETT STATION,33.748938,-84.395545
-84.391452,33.7540520000001,68,908986,811,FIVE POINTS STATION,33.754052,-84.391452
-84.387596,33.7581890000001,69,908601,812,PEACHTREE CENTER STATION,33.758189,-84.387596
-84.305556,33.887929,70,908603,814,CHAMBLEE STATION,33.887929,-84.305556
-84.306362,33.8875170000001,71,908604,815,CHAMBLEE STATION,33.887517,-84.306362
-84.387595,33.7580820000001,72,907842,817,PEACHTREE CENTER STATION,33.758082,-84.387595
-84.39156,33.753899,73,908976,818,FIVE POINTS STATION,33.753899,-84.39156
-84.395741,33.7486960000001,74,907843,819,GARNETT STATION,33.748696,-84.395741
-84.448612,33.6502820000001,75,907844,820,COLLEGE PARK STATION,33.650282,-84.448612
-84.446198,33.6405530000001,76,906647,821,AIRPORT STATION,33.640553,-84.446198
-84.3510689999999,33.9316710000001,77,907845,822,SANDY SPRINGS STATION,33.931671,-84.351069
-84.35096,33.931564,78,907846,823,SANDY SPRINGS STATION,33.931564,-84.35096
-84.446197,33.640294,79,906837,1118,AIRPORT STATION,33.640294,-84.446197
-84.2942179999999,34.0894950000001,80,902632,9008,N MAIN ST @ WINTHROPE PARK DR,34.089495,-84.294218
-84.294957,34.0858260000001,81,902630,9012,N MAIN ST @ 379,34.085826,-84.294957
-84.294755,34.0838600000001,82,902631,9016,N MAIN ST @ 301,34.08386,-84.294755
-84.294607,34.0822920000001,83,900005,9020,N MAIN ST @ PINE GROVE DR,34.082292,-84.294607
-84.29444,34.0804010000001,84,900006,9025,N MAIN ST @ MAYFIELD RD,34.080401,-84.29444
-84.294291,34.078152,85,900018,9030,N MAIN ST @ CUMMING ST,34.078152,-84.294291
-84.2942879999999,34.076201,86,900007,9031,N MAIN ST @ ACADEMY ST,34.076201,-84.294288
-84.292399,34.090788,87,900008,9034,N MAIN ST @ VAUGHAN DR,34.090788,-84.292399
-84.293124,34.090721,88,900010,9224,N MAIN ST @ VAUGHAN DR,34.090721,-84.293124
-84.2950509999999,34.082476,89,900011,9226,N MAIN ST @ PINE GROVE DR,34.082476,-84.295051
-84.268277,34.0875800000001,90,900012,10004,WINDWARD PKWY @ DEERFIELD PKWY,34.08758,-84.268277
-84.2651319999999,34.087337,91,900013,10006,WINDWARD PKWY @ 5532,34.087337,-84.265132
-84.2579,34.0888600000001,92,900014,10008,WINDWARD PKWY @ NORTH POINT PKWY,34.08886,-84.2579
-84.257107,34.088603,93,902838,10010,WINDWARD PKWY @ NORTH POINT PKWY,34.088603,-84.257107
-84.421186,33.7548090000001,94,902839,10040,MARTIN L KING JR DR NW @ OLLIE ST NW,33.754809,-84.421186
-84.2594799999999,34.08083,95,902840,10044,NORTH POINT PKY@900,34.08083,-84.25948
-84.260238,34.0784130000001,96,902796,10046,NORTH POINT PKY@960,34.078413,-84.260238
-84.2568699999999,34.0864500000001,97,902797,10048,NORTH POINT PKY@300,34.08645,-84.25687
-84.2606959999999,34.0781630000001,98,902798,10054,NORTH POINT PKY @ 960,34.078163,-84.260696
-84.260458,34.076401,99,902799,10056,NORTH POINT PKY @ WEBB BRIDGE RD,34.076401,-84.260458
-84.404936,33.748929,100,902902,10134,ATLANTA STUDENT MOVEMENT BLVD @ NORTHSIDE DR SW,33.748929,-84.404936
-84.27003,34.0908150000001,101,906745,10142,DEERFIELD PKWY @ MORRIS RD,34.090815,-84.27003
-84.276484,34.0922780000001,102,902976,10146,WINDWARD PKWY @ JORDAN CT,34.092278,-84.276484
-84.277967,34.09459,103,902977,10148,SR 9 @ WINDWARD PKWY,34.09459,-84.277967
-84.2843119999999,34.092248,104,902978,10150,N MAIN ST @ COGBURN RD,34.092248,-84.284312
-84.290431,34.0917260000001,105,902903,10168,N MAIN ST @ 684,34.091726,-84.290431
-84.2886149999999,34.0919270000001,106,902904,10170,N MAIN ST @ WATER OAK PL,34.091927,-84.288615
-84.269247,34.089933,107,902905,10172,DEERFIELD PKWY @ MORRIS RD,34.089933,-84.269247
-84.270926,34.0933700000001,108,902979,10174,DEERFIELD PKWY @ TWO VERIZON PL,34.09337,-84.270926
-84.267954,34.0954800000001,109,902980,10176,DEERFIELD PKWY @ THREE VERIZON PL,34.09548,-84.267954
-84.279531,34.093963,110,902981,10186,N MAIN ST @ WINDWARD PKY W,34.093963,-84.279531
-84.24747,34.0625600000001,111,902982,10188,OLD MILTON PKY @ BRIDGE POINTE DR,34.06256,-84.24747
-84.2854149999999,34.0920390000001,112,903045,10212,N MAIN ST @ HENDERSON PKWY,34.092039,-84.285415
-84.29524,34.0887950000001,113,903046,10214,N MAIN ST @ CANTON ST,34.088795,-84.29524
-84.253908,34.064694,114,903083,10218,OLD MILTON PKWY @ BROOKSIDE PKY,34.064694,-84.253908
-84.2544,34.06235,115,903084,10220,BROOKSIDE PKWY @ 3705,34.06235,-84.2544
-84.252481,34.061248,116,903085,10222,BROOKSIDE PKWY @ 3775,34.061248,-84.252481
-84.2444149999999,34.0614390000001,117,903185,10232,OLD MILTON PKWY @ ROCKBERRY LN,34.061439,-84.244415
-84.253526,34.064854,118,903186,10234,OLD MILTON PKWY @ COTTON CREEK ENTRY,34.064854,-84.253526
-84.258072,34.0667050000001,119,902637,10238,OLD MILTON PKWY @ 3502,34.066705,-84.258072
-84.2573199999999,34.08513,120,902638,10244,NORTH POINT PKY@500,34.08513,-84.25732
-84.269008,34.087517,121,902639,10248,WINDWARD PKWY @ WESTSIDE PKWY,34.087517,-84.269008
-84.2605609999999,34.096344,122,903217,10250,MORRIS RD @ WEBB RD,34.096344,-84.260561
-84.2625629999999,34.094303,123,903218,10252,MORRIS RD@13010,34.094303,-84.262563
-84.242611,34.06095,124,903219,10254,OLD MILTON PKWY @ PARK BRIDGE PKWY,34.06095,-84.242611
-84.278328,34.093579,125,903220,10256,WINDWARD PKWY @ N MAIN ST,34.093579,-84.278328
-84.2605589999999,34.085992,126,902641,10266,WINDWARD PARK & RIDE,34.085992,-84.260559
-84.261262,34.0810000000001,127,902643,10270,MORRIS RD @ 12395,34.081,-84.261262
-84.265427,34.087024,128,902644,10272,WINDWARD PKWY @ 5555,34.087024,-84.265427
-84.264371,34.0975090000001,129,902649,10274,DEERFIELD PKWY @ WEBB RD,34.097509,-84.264371
-84.266497,34.091014,130,902650,10276,MORRIS RD @ ONE VERIZON PL,34.091014,-84.266497
-84.3395839999999,34.0463290000001,131,902765,14002,ALPHARETTA HWY @ HOUZE WAY,34.046329,-84.339584
-84.3378059999999,34.0497720000001,132,902766,14004,ALPHARETTA HWY@SUN VALLEY DR,34.049772,-84.337806
-84.334413,34.0518660000001,133,902772,14009,ALPHARETTA HWY @ ELKINS RD,34.051866,-84.334413
-84.330254,34.054226,134,902773,14010,ALPHARETTA HWY@MANSELL PL,34.054226,-84.330254
-84.329132,34.0551150000001,135,902774,14012,ALPHARETTA HWY @ GREENHOUSE DR,34.055115,-84.329132
-84.326409,34.058438,136,902767,14014,ALPHARETTA HWY@ROSEMONT PKY,34.058438,-84.326409
-84.324602,34.0608320000001,137,902768,14018,ALPHARETTA HWY@HEMBREE RD,34.060832,-84.324602
-84.322976,34.0627470000001,138,902769,14020,ALPHARETTA HWY@HOSPITAL BLVD,34.062747,-84.322976
-84.31873,34.0658520000001,139,902770,14022,ALPHARETTA HWY@NORTHMEADOW PKWY,34.065852,-84.31873
-84.316296,34.066263,140,906278,14024,ALPHARETTA HWY@HANEY DR,34.066263,-84.316296
-84.313118,34.0662770000001,141,906279,14026,ALPHARETTA HWY@WILLS RD,34.066277,-84.313118
-84.316063,34.066383,142,906281,14028,ALPHARETTA HWY@HANEY DR,34.066383,-84.316063
-84.319,34.065865,143,906295,14030,ALPHARETTA HWY @ UPPER HEMBREE RD,34.065865,-84.319
-84.3227229999999,34.0632900000001,144,906296,14032,ALPHARETTA HWY @ HOSPITAL BLVD,34.06329,-84.322723
-84.324554,34.0610960000001,145,906312,14034,ALPHARETTA HWY @ HEMBREE RD,34.061096,-84.324554
-84.327896,34.0571820000001,146,906337,14038,ALPHARETTA HWY@11450,34.057182,-84.327896
-84.329323,34.0554080000001,147,906338,14040,ALPHARETTA HWY @ GREENHOUSE DR,34.055408,-84.329323
-84.3313449999999,34.0538480000001,148,906339,14042,ALPHARETTA HWY@MANSELL PL,34.053848,-84.331345
-84.337621,34.050059,149,906314,14046,ALPHARETTA HWY@SUN VALLEY DR,34.050059,-84.337621
-84.309834,34.066226,150,906315,14048,S MAIN ST @ 571,34.066226,-84.309834
-84.304719,34.0662970000001,151,906341,15007,MAIN ST@BRADY PL,34.066297,-84.304719
-84.301102,34.067867,152,906342,15008,MAIN ST@MAXWELL RD,34.067867,-84.301102
-84.294505,34.0783200000001,153,906318,15011,N MAIN ST @ CUMMING ST,34.07832,-84.294505
-84.298078,34.0697500000001,154,906320,15014,S MAIN ST @ JANIS LN,34.06975,-84.298078
-84.2901419999999,34.046681,155,903188,15018,NORTH POINT PKWY @ 6360,34.046681,-84.290142
-84.290381,34.0469850000001,156,903189,15020,NORTH POINT PKWY @ 6250,34.046985,-84.290381
-84.301615,34.0678,157,902705,15022,S MAIN ST @ MAXWELL RD,34.0678,-84.301615
-84.29787,34.0698390000001,158,902706,15026,S MAIN ST @ JANIS LN,34.069839,-84.29787
-84.286369,34.0568860000001,159,902707,15028,HAYNES BRIDGE RD@11385,34.056886,-84.286369
-84.291553,34.0637170000001,160,902708,15030,HAYNES BRIDGE RD @ RAINWATER DR,34.063717,-84.291553
-84.292587,34.0664090000001,161,903190,15032,HAYNES BRIDGE RD @ DEVORE RD,34.066409,-84.292587
-84.2939249999999,34.068882,162,903191,15036,HAYNES BRIDGE RD@11770,34.068882,-84.293925
-84.2931129999999,34.066134,163,903192,15037,HAYNES BRIDGE RD @ DEVORE RD,34.066134,-84.293113
-84.291782,34.063449,164,902709,15040,HAYNES BRIDGE RD @ WOODHAVEN WAY,34.063449,-84.291782
-84.289472,34.060412,165,902710,15042,HAYNES BRIDGE RD @ MORRISON PKWY,34.060412,-84.289472
-84.326815,34.058564,166,902711,15044,ALPHARETTA HWY @ ROSEMONT PKWY,34.058564,-84.326815
-84.289146,34.0610550000001,167,902653,15048,HAYNES BRIDGE RD @ WESTSIDE PKWY,34.061055,-84.289146
-84.292976,34.0753990000001,168,902775,15054,ACADEMY ST @ HAYNES BRIDGE RD,34.075399,-84.292976
-84.28695,34.0572920000001,169,902817,15056,HAYNES BRIDGE RD @ LAKEVIEW PKWY,34.057292,-84.28695
-84.288493,34.047736,170,902820,15062,NORTH POINT PKWY @ NORTH POINT CT,34.047736,-84.288493
-84.2854579999999,34.0516010000001,171,902776,15066,HAYNES BRIDGE RD@ROCK MILL RD,34.051601,-84.285458
-84.2873749999999,34.0586070000001,172,902777,15068,HAYNES BRIDGE RD @ NORTHWINDS PKWY,34.058607,-84.287375
-84.283285,34.04988,173,902821,15074,NORTH POINT PKY@GEORGIA LANE,34.04988,-84.283285
-84.2839749999999,34.049247,174,902822,15076,NORTH POINT PKWY @ GEORGIA LN,34.049247,-84.283975
-84.285986,34.049964,175,902846,15078,HAYNES BRIDGE RD@NORTH POINT DR,34.049964,-84.285986
-84.274303,34.0546200000001,176,902847,15080,NORTH POINT PKY@ KIMBALL BRIDGE RD,34.05462,-84.274303
-84.2772859999999,34.0547260000001,177,902780,15082,NORTH POINT PKWY @ 5055,34.054726,-84.277286
-84.280963,34.049988,178,902948,15086,NORTH POINT PKWY @ MILL CREEK AVE,34.049988,-84.280963
-84.2807539999999,34.0504540000001,179,902949,15088,NORTH POINT PKY @ NORTH POINT DR,34.050454,-84.280754
-84.279206,34.051814,180,902950,15090,NORTH POINT PKY@ROCK MILL RD,34.051814,-84.279206
-84.2796519999999,34.0519380000001,181,902951,15092,NORTH POINT PKY@ROCK MILL RD,34.051938,-84.279652
-84.271739,34.054603,182,902917,16010,NORTH POINT PKY@ROYAL BLVD S,34.054603,-84.271739
-84.262005,34.0659420000001,183,902918,16016,NORTH POINT PKY @ 4000,34.065942,-84.262005
-84.256571,34.071018,184,902919,16018,NORTH POINT PKY@PRESTON RIDGE RD,34.071018,-84.256571
-84.2602889999999,34.0693230000001,185,902953,16020,NORTH POINT PKY @ 3980,34.069323,-84.260289
-84.2570029999999,34.0741630000001,186,902954,16022,NORTH POINT PKY@3180,34.074163,-84.257003
-84.256765,34.0716840000001,187,902955,16023,NORTH POINT PKY @ PRESTON RIDGE RD,34.071684,-84.256765
-84.257706,34.074037,188,902920,16024,NORTH POINT PKY @ 3180,34.074037,-84.257706
-84.2658949999999,34.0605190000001,189,906734,16026,NORTH POINT PKY @ 4501,34.060519,-84.265895
-84.2621579999999,34.06661,190,902921,16028,NORTH POINT PKY @ 4125,34.06661,-84.262158
-84.260748,34.068411,191,902922,16030,NORTH POINT PKY @ OLD MILTON PKY,34.068411,-84.260748
-84.361641,34.0196800000001,192,903071,20012,ATLANTA ST @ OAK ST,34.01968,-84.361641
-84.360722,34.024141,193,903098,20014,ALPHARETTA ST@ELIZABETH WAY,34.024141,-84.360722
-84.3604579999999,34.0251880000001,194,903099,20016,ALPHARETTA ST@NORCROSS ST,34.025188,-84.360458
-84.358696,34.0272410000001,195,903100,20018,ALPHARETTA ST@CHERRY ST,34.027241,-84.358696
-84.356476,34.029003,196,903101,20020,ALPHARETTA ST @ WOODSTOCK ST,34.029003,-84.356476
-84.352794,34.0313200000001,197,903072,20024,ALPHARETTA ST @ THOMAS DR,34.03132,-84.352794
-84.351299,34.032179,198,903073,20026,ALPHARETTA ST@1207,34.032179,-84.351299
-84.346985,34.034595,199,903074,20028,ALPHARETTA ST@ALPINE DR,34.034595,-84.346985
-84.353143,34.031257,200,903075,20032,ALPHARETTA ST @ STRICKLAND RD,34.031257,-84.353143
-84.355608,34.029726,201,903102,20036,ALPHARETTA ST@WOODSTOCK ST,34.029726,-84.355608
-84.357669,34.028401,202,903103,20038,ALPHARETTA ST @ CHERRY ST,34.028401,-84.357669
-84.3598279999999,34.0261370000001,203,903104,20040,ALPHARETTA ST@GREEN ST,34.026137,-84.359828
-84.36072,34.0246970000001,204,903105,20042,ALPHARETTA ST@ELIZABETH WAY,34.024697,-84.36072
-84.362649,34.0168640000001,205,903166,20044,ATLANTA ST @ OXBO RD,34.016864,-84.362649
-84.361767,34.0201230000001,206,902622,20046,ATLANTA ST @ OAK ST,34.020123,-84.361767
-84.3616039999999,34.0216090000001,207,902623,20050,ATLANTA ST@HILL ST,34.021609,-84.361604
-84.664778,33.5248770000001,208,902719,20052,MAIN ST@PARK ST,33.524877,-84.664778
-84.353944,34.030607,209,902720,20054,ALPHARETTA ST@THOMAS DR,34.030607,-84.353944
-84.335055,34.0428020000001,210,902721,21009,MANSELL RD@901,34.042802,-84.335055
-84.338995,34.0427570000001,211,902722,21010,MANSELL RD@EAGLES CREST VILLAGE LN,34.042757,-84.338995
-84.3298349999999,34.0425730000001,212,902624,21011,MANSELL RD@WARSAW RD,34.042573,-84.329835
-84.3242749999999,34.0414430000001,213,902625,21012,MANSELL RD@OLD ROSWELL RD,34.041443,-84.324275
-84.3190049999999,34.0400920000001,214,902626,21014,MANSELL RD@DUKE DR,34.040092,-84.319005
-84.319267,34.0403240000001,215,902723,21023,MANSELL RD@WESTSIDE PKY,34.040324,-84.319267
-84.329196,34.042695,216,902724,21025,MANSELL RD@WARSAW RD,34.042695,-84.329196
-84.338711,34.042829,217,902628,21029,MANSELL RD@EAGLES CREST VILLAGE LN,34.042829,-84.338711
-84.342867,34.035876,218,902787,21038,HOLCOMB BRIDGE RD @ ALPHARETTA ST,34.035876,-84.342867
-84.34199,34.0347550000001,219,902788,21042,HOLCOMB BRIDGE RD@ALPHARETTA ST,34.034755,-84.34199
-84.341197,34.032834,220,902789,21044,HOLCOMB BRIDGE RD@GRIMES BRIDGE RD,34.032834,-84.341197
-84.34081,34.032943,221,902832,21046,HOLCOMB BRIDGE RD@OLD ROSWELL RD,34.032943,-84.34081
-84.339365,34.031756,222,902856,21048,HOLCOMB BRIDGE RD@OLD ROSWELL RD,34.031756,-84.339365
-84.339352,34.0312950000001,223,902857,21050,HOLCOMB BRIDGE RD@MARKET PL,34.031295,-84.339352
-84.338273,34.030893,224,902858,21052,HOLCOMB BRIDGE RD@MARKET PL,34.030893,-84.338273
-84.3384359999999,34.030606,225,902790,21054,HOLCOMB BRIDGE RD@MARKET PL,34.030606,-84.338436
-84.335359,34.0281370000001,226,902791,21056,HOLCOMB BRIDGE RD @ WARSAW RD,34.028137,-84.335359
-84.33501,34.0281640000001,227,902792,21058,HOLCOMB BRIDGE RD @ WARSAW RD,34.028164,-84.33501
-84.3326309999999,34.025972,228,902829,21060,HOLCOMB BRIDGE RD @ RIVERWOOD LN,34.025972,-84.332631
-84.332173,34.0259360000001,229,902830,21062,HOLCOMB BRIDGE RD @ OLD HOLCOMB BRIDGE RD,34.025936,-84.332173
-84.329599,34.023851,230,902831,21064,HOLCOMB BRIDGE RD @ DOGWOOD RD,34.023851,-84.329599
-84.329729,34.0236630000001,231,902962,21066,HOLCOMB BRIDGE RD @ DOGWOOD RD,34.023663,-84.329729
-84.346412,34.0345600000001,232,902963,21070,ALPHARETTA ST@MANSELL CIR,34.03456,-84.346412
-84.3428499999999,34.03909,233,902965,21074,ALPHARETTA ST @ COMMERCE PKY,34.03909,-84.34285
-84.3419719999999,34.041012,234,902923,21076,ALPHARETTA ST @ 10761,34.041012,-84.341972
-84.341461,34.042066,235,902924,21079,ALPHARETTA ST@MANSELL RD,34.042066,-84.341461
-84.339955,34.0462470000001,236,902925,21080,ALPHARETTA HWY@HOUZE WAY,34.046247,-84.339955
-84.341303,34.0432250000001,237,902926,21082,ALPHARETTA HWY@MANSELL RD,34.043225,-84.341303
-84.351059,34.0323940000001,238,902966,21084,ALPHARETTA ST@1240,34.032394,-84.351059
-84.343293,34.0382470000001,239,902967,21096,ALPHARETTA ST @ HOUZE RD,34.038247,-84.343293
-84.288581,34.0479780000001,240,902968,21097,NORTH POINT PKWY @ NORTH POINT CT,34.047978,-84.288581
-84.326959,34.022482,241,902927,21098,HOLCOMB BRIDGE RD @ OLD DOGWOOD RD,34.022482,-84.326959
-84.2867199999999,34.0490610000001,242,902928,21102,HAYNES BRIDGE RD @ NORTH POINT PKWY,34.049061,-84.28672
-84.286285,34.050373,243,903114,21104,HAYNES BRIDGE RD @ NORTH POINT DR,34.050373,-84.286285
-84.34207,34.033917,244,903079,21112,HOLCOMB BRIDGE RD@GRIMES BRIDGE RD,34.033917,-84.34207
-84.340153,34.0450880000001,245,903080,21120,ALPHARETTA HWY @ 10885,34.045088,-84.340153
-84.321853,34.039993,246,903116,21122,MANSELL RD@KINGSWOOD PL,34.039993,-84.321853
-84.332759,34.042966,247,903117,21124,MANSELL RD @ 980,34.042966,-84.332759
-84.3312799999999,34.042668,248,903118,21126,MANSELL RD@WARSAW RD,34.042668,-84.33128
-84.3152949999999,34.0403150000001,249,903119,21128,MANSELL RD@DAVIS DR,34.040315,-84.315295
-84.313769,34.03815,250,903120,21950,MANSELL PARK & RIDE - ON RAMP,34.03815,-84.313769
-84.3131729999999,34.038643,251,903177,21951,MANSELL PARK & RIDE - IN LOT,34.038643,-84.313173
-84.3420169999999,34.041281,252,903078,21954,ALPHARETTA ST @ 10730,34.041281,-84.342017
-84.336136,34.0428650000001,253,903113,21960,MANSELL RD@950,34.042865,-84.336136
-84.325824,34.042445,254,902633,21962,MANSELL RD@OLD ROSWELL RD,34.042445,-84.325824
-84.3218199999999,34.040244,255,902634,21964,MANSELL RD@KINGSWOOD PL,34.040244,-84.32182
-84.3274719999999,34.042633,256,902635,21966,MANSELL RD@COLONIAL CTR PKWY,34.042633,-84.327472
-84.305718,34.0392120000001,257,902636,22016,NORTH POINT PKWY @ MANSELL RD,34.039212,-84.305718
-84.305796,34.039656,258,902682,22018,NORTH POINT PKWY @ 7731,34.039656,-84.305796
-84.303728,34.0420310000001,259,902732,22022,NORTH POINT PKWY @ 7301,34.042031,-84.303728
-84.3021429999999,34.0430900000001,260,902733,22024,NORTH POINT PKWY @ 7231,34.04309,-84.302143
-84.293695,34.045281,261,902735,22028,NORTH POINT PKWY @ 6440,34.045281,-84.293695
-84.29407,34.0453850000001,262,902841,22030,NORTH POINT PWKY @ 6499,34.045385,-84.29407
-84.299527,34.0441060000001,263,902801,22042,NORTH POINT PKWY @ ENCORE PKWY,34.044106,-84.299527
-84.299767,34.043757,264,902802,22044,NORTH POINT PKWY @ ENCORE PKWY,34.043757,-84.299767
-84.3065099999999,34.0383,265,902872,22060,NORTH POINT PKWY @ MANSELL RD,34.0383,-84.30651
-84.3032469999999,34.042041,266,902804,22068,NORTH POINT PKWY @ 7300,34.042041,-84.303247
-84.351974,33.9895970000001,267,902929,26002,ROSWELL RD@HOPE RD,33.989597,-84.351974
-84.351707,33.992786,268,902930,26004,ROSWELL RD @ HUNTCLIFF NE,33.992786,-84.351707
-84.351372,33.9948620000001,269,902931,26006,ROSWELL RD @ 8740,33.994862,-84.351372
-84.3504599999999,34.001514,270,902932,26007,ROSWELL RD@RIVER PKY,34.001514,-84.35046
-84.3505039999999,34.0029010000001,271,902983,26010,ROSWELL RD@ROBERTS DR,34.002901,-84.350504
-84.350622,33.999743,272,902984,26011,ROSWELL RD@DUNWOODY PL,33.999743,-84.350622
-84.350533,33.998459,273,902985,26018,ROSWELL RD@8775,33.998459,-84.350533
-84.3503719999999,34.000168,274,902933,26020,ROSWELL RD@9040,34.000168,-84.350372
-84.3503269999999,34.0013920000001,275,903050,26022,ROSWELL RD@RIVER PKWY,34.001392,-84.350327
-84.3504169999999,34.0029640000001,276,903051,26025,ROSWELL RD@ROBERTS DR,34.002964,-84.350417
-84.35068,34.0058270000001,277,903129,26026,ATLANTA ST@RIVERSIDE RD,34.005827,-84.35068
-84.353101,34.0075360000001,278,903130,26029,ATLANTA ST@CHATTAHOOCHEE CIR,34.007536,-84.353101
-84.35729,34.00877,279,903131,26030,ATLANTA ST@WARM SPRINGS CIR,34.00877,-84.35729
-84.359842,34.008653,280,903132,26032,ATLANTA ST@JONES DR,34.008653,-84.359842
-84.3627779999999,34.0124190000001,281,903052,26034,ATLANTA ST@KING ST,34.012419,-84.362778
-84.362854,34.0140880000001,282,903053,26036,ATLANTA ST@MILL ST,34.014088,-84.362854
-84.362694,34.016396,283,903081,26040,ATLANTA ST@MAPLE ST,34.016396,-84.362694
-84.357443,34.008698,284,903082,26044,ATLANTA ST@WARM SPRINGS CIR,34.008698,-84.357443
-84.352782,34.0071960000001,285,903133,26045,ATLANTA ST@CHATTAHOOCHEE CIR,34.007196,-84.352782
-84.3600059999999,34.008608,286,903134,26046,ATLANTA ST @ JONES DR,34.008608,-84.360006
-84.3509089999999,34.006087,287,903135,26047,ATLANTA ST@AZALEA DR,34.006087,-84.350909
-84.361282,34.0097710000001,288,903136,26048,ATLANTA ST@426,34.009771,-84.361282
-84.3627999999999,34.01181,289,903141,26050,ATLANTA ST@CHATTAHOOCHEE ST,34.01181,-84.3628
-84.343491,33.9905620000001,290,903142,26052,DUNWOODY PL @ 8601,33.990562,-84.343491
-84.3490439999999,33.995324,291,902651,26056,DUNWOODY PL @ 8725,33.995324,-84.349044
-84.347317,33.9933360000001,292,902645,26072,DUNWOODY PL @ N RIVER DR,33.993336,-84.347317
-84.351526,33.992441,293,902692,26080,ROSWELL RD@HUNTINGTON PLACE DR,33.992441,-84.351526
-84.362834,34.015363,294,902694,26084,ATLANTA ST @ SLOAN ST,34.015363,-84.362834
-84.34964,33.9958150000001,295,902695,26086,DUNWOODY PL @ ROSWELL RD,33.995815,-84.34964
-84.341888,33.9894140000001,296,902744,27002,DUNWOODY PL @ ROBERTS DR,33.989414,-84.341888
-84.343129,33.9902680000001,297,902745,27004,DUNWOODY PL @ ROBERTS DR,33.990268,-84.343129
-84.341629,33.9862440000001,298,906297,27005,DUNWOODY PL @ HIGHTOWER TRL,33.986244,-84.341629
-84.345026,33.9915740000001,299,906298,27008,DUNWOODY PL @ 8700,33.991574,-84.345026
-84.34507,33.991476,300,906282,27010,DUNWOODY PL @ 8800,33.991476,-84.34507
-84.346627,33.9928170000001,301,906283,27012,DUNWOODY PL @ CEDAR RUN,33.992817,-84.346627
-84.347099,33.993077,302,906284,27014,DUNWOODY PL @ HOPE RD,33.993077,-84.347099
-84.302486,33.960004,303,906299,31002,JETT FERRY RD@DUNWOODY CLUB DR,33.960004,-84.302486
-84.3652269999999,33.9593810000001,304,906300,32002,ROSWELL RD NE@TROWBRIDGE RD,33.959381,-84.365227
-84.364922,33.9633670000001,305,906301,32004,ROSWELL RD@7546,33.963367,-84.364922
-84.362786,33.966234,306,906302,32006,ROSWELL RD @ 7741,33.966234,-84.362786
-84.357112,33.9734060000001,307,906286,32012,ROSWELL RD @ HAMPTON DE,33.973406,-84.357112
-84.355011,33.974342,308,906287,32014,ROSWELL RD@BRANTLEY RD,33.974342,-84.355011
-84.3536569999999,33.9749820000001,309,906288,32016,ROSWELL RD @ PITTS RD,33.974982,-84.353657
-84.3515609999999,33.977017,310,906357,32017,ROSWELL RD @ NORTHRIDGE CROSSING DR,33.977017,-84.351561
-84.350815,33.9788280000001,311,906358,32020,ROSWELL RD@8215,33.978828,-84.350815
-84.350197,33.9817350000001,312,906359,32022,ROSWELL RD@NORTHRIDGE RD,33.981735,-84.350197
-84.350498,33.9854920000001,313,906321,32025,ROSWELL RD@NORTHRIDGE PKY,33.985492,-84.350498
-84.351328,33.9885840000001,314,906352,32026,ROSWELL RD@HIGHTOWER TRL,33.988584,-84.351328
-84.365335,33.959077,315,906353,32028,ROSWELL RD @ TROWBRIDGE RD,33.959077,-84.365335
-84.3634289999999,33.965767,316,906354,32032,ROSWELL RD@7730,33.965767,-84.363429
-84.3611089999999,33.9689050000001,317,906355,32034,ROSWELL RD @ MORGAN FALLS RD,33.968905,-84.361109
-84.359618,33.9704170000001,318,906322,32036,ROSWELL RD@7840,33.970417,-84.359618
-84.358749,33.971504,319,906323,32038,ROSWELL RD @ 7878,33.971504,-84.358749
-84.357605,33.973217,320,906324,32040,ROSWELL RD@GROGANS FERRY RD,33.973217,-84.357605
-84.3556369999999,33.9743580000001,321,906325,32042,ROSWELL RD@BRANTLEY RD,33.974358,-84.355637
-84.3532319999999,33.975224,322,906356,32044,ROSWELL RD@ISON RD,33.975224,-84.353232
-84.351929,33.9769920000001,323,903061,32045,ROSWELL RD@NORTHRIDGE CROSSING DR,33.976992,-84.351929
-84.351072,33.97891,324,903065,32046,ROSWELL RD@8215,33.97891,-84.351072
-84.350677,33.984066,325,903067,32050,ROSWELL RD@NORTHRIDGE PKY,33.984066,-84.350677
-84.350793,33.9857270000001,326,903068,32051,ROSWELL RD@8450,33.985727,-84.350793
-84.351409,33.9877880000001,327,903145,32053,ROSWELL RD@HIGHTOWER TRL,33.987788,-84.351409
-84.361253,33.968332,328,903149,32070,ROSWELL RD@MORGAN FALLS RD,33.968332,-84.361253
-84.360081,33.969747,329,903150,32072,ROSWELL RD@7840,33.969747,-84.360081
-84.365506,33.9608490000001,330,902656,32080,ROSWELL RD@7525,33.960849,-84.365506
-84.350434,33.981056,331,902713,32082,ROSWELL RD @ NORTHRIDGE RD,33.981056,-84.350434
-84.3412739999999,33.984747,332,902658,33016,DUNWOODY PL @ NORTHRIDGE PKY,33.984747,-84.341274
-84.341481,33.9861790000001,333,902659,33017,DUNWOODY PL @ HIGHTOWER TRL,33.986179,-84.341481
-84.3428079999999,33.9827450000001,334,902660,33018,DUNWOODY PL @ NORTHRIDGE RD,33.982745,-84.342808
-84.3584519999999,33.9714700000001,335,902782,35010,ROSWELL RD @ 7865,33.97147,-84.358452
-84.3764619999999,33.9390010000001,336,902783,35016,ROSWELL RD NE @ ALDERWOOD PL,33.939001,-84.376462
-84.372871,33.9423140000001,337,902849,35018,ROSWELL RD NE@6851,33.942314,-84.372871
-84.365623,33.9628070000001,338,902850,35020,ROSWELL RD @ CIMARRON PKWY,33.962807,-84.365623
-84.370956,33.9458270000001,339,902851,35022,ROSWELL RD NE@SPALDING DR NE,33.945827,-84.370956
-84.3705219999999,33.948154,340,902784,35024,ROSWELL RD NE@7070,33.948154,-84.370522
-84.369406,33.949751,341,902785,35027,ROSWELL RD NE@7140,33.949751,-84.369406
-84.368442,33.950971,342,902786,35031,ROSWELL RD NE@7155,33.950971,-84.368442
-84.36817,33.950723,343,902812,35033,ROSWELL RD NE@7155,33.950723,-84.36817
-84.364582,33.9553990000001,344,902852,35034,ROSWELL RD NE @ DALRYMPLE RD NE,33.955399,-84.364582
-84.364386,33.9560080000001,345,902853,35038,ROSWELL RD NE @ DALRYMPLE RD NE,33.956008,-84.364386
-84.364632,33.9569050000001,346,902854,35040,ROSWELL RD NE@7447,33.956905,-84.364632
-84.371747,33.944667,347,902814,35046,ROSWELL RD NE@6940,33.944667,-84.371747
-84.372831,33.943185,348,902815,35047,ROSWELL RD NE@6900,33.943185,-84.372831
-84.371246,33.946217,349,902958,35048,ROSWELL RD NE@SPALDING DR NE,33.946217,-84.371246
-84.3799999999999,33.933925,350,902995,35060,ROSWELL RD NE @ 6500,33.933925,-84.38
-84.379108,33.9360550000001,351,902961,35066,ROSWELL RD NE @ ABERNATHY RD,33.936055,-84.379108
-84.366776,33.953271,352,903107,35129,ROSWELL RD NE @ 7256,33.953271,-84.366776
-84.3666459999999,33.95277,353,903109,35132,ROSWELL RD NE@7256,33.95277,-84.366646
-84.371056,33.948387,354,903194,35134,ROSWELL RD NE@7070,33.948387,-84.371056
-84.370188,33.9494270000001,355,903195,35135,ROSWELL RD NE@7100,33.949427,-84.370188
-84.3770069999999,33.9386510000001,356,903111,35144,ROSWELL RD NE @ ALDERWOOD PL,33.938651,-84.377007
-84.378901,33.9360110000001,357,903112,35146,ROSWELL RD NE @ ABERNATHY RD NW,33.936011,-84.378901
-84.3572349999999,33.9454160000001,358,902725,35900,NORTH SPRINGS STATION,33.945416,-84.357235
-84.3375799999999,33.9339640000001,359,902726,36002,ASHFORD DUNWOODY RD@ASHFORD PKY,33.933964,-84.33758
-84.338063,33.9398110000001,360,902727,36003,ASHFORD DUNWOODY RD @ ASHFORD CENTER,33.939811,-84.338063
-84.337755,33.936201,361,902728,36004,ASHFORD DUNWOODY RD@VALLEY VIEW RD,33.936201,-84.337755
-84.3382129999999,33.938949,362,902668,36005,ASHFORD DUNWOODY RD @ ASHFORD CENTER PKY,33.938949,-84.338213
-84.3382349999999,33.941293,363,902669,36006,ASHFORD DUNWOODY RD@ASHFORD CTR N,33.941293,-84.338235
-84.334411,33.94609,364,902864,36038,CHAMBLEE DUNWOODY RD @ MT VERNON RD,33.94609,-84.334411
-84.3355119999999,33.9476920000001,365,902865,36040,CHAMBLEE DUNWOODY RD @ NANDINA LN,33.947692,-84.335512
-84.3363219999999,33.949327,366,902866,36050,CHAMBLEE DUNWOODY RD @ DUNWOODY VILLAGE PKWY,33.949327,-84.336322
-84.3383229999999,33.941633,367,903004,36088,ASHFORD DUNWOODY RD @ ASHFORD CTR N,33.941633,-84.338323
-84.338028,33.9366670000001,368,903005,36090,ASHFORD DUNWOODY RD@ASHFORD GABLES,33.936667,-84.338028
-84.3378089999999,33.933678,369,903006,36092,ASHFORD DUNWOODY RD@ASHWOOD PKWY,33.933678,-84.337809
-84.3375799999999,33.931611,370,902973,36096,ASHFORD DUNWOODY RD@MEADOW LANE RD,33.931611,-84.33758
-84.3378979999999,33.9427700000001,371,902974,36098,ASHFORD DUNWOODY RD@MT VERNON RD,33.94277,-84.337898
-84.3316179999999,33.9476070000001,372,902970,36112,DUNWOODY VILLAGE PKY @ MT VERNON RD,33.947607,-84.331618
-84.3326499999999,33.9493670000001,373,902971,36114,DUNWOODY VILLAGE PKY @ 1424,33.949367,-84.33265
-84.2946919999999,33.9308,374,903121,37002,N PEACHTREE RD @ KINGS POINT DR,33.9308,-84.294692
-84.305518,33.9553690000001,375,903122,37003,MT VERNON RD@TILLY MILL RD,33.955369,-84.305518
-84.294791,33.9309720000001,376,903123,37004,N PEACHTREE RD@KINGS POINT DR,33.930972,-84.294791
-84.3119599999999,33.95243,377,903124,37005,MT VERNON RD@MEADOW LAKE DR,33.95243,-84.31196
-84.294998,33.9347230000001,378,903204,37006,N PEACHTREE RD @ BROOK RUN AVE,33.934723,-84.294998
-84.31175,33.95264,379,903205,37007,MT VERNON RD@MEADOW LAKE DR,33.95264,-84.31175
-84.297082,33.9389400000001,380,903206,37008,TILLY MILL RD @ CHERRING DR,33.93894,-84.297082
-84.3193229999999,33.9505760000001,381,903207,37009,MT VERNON RD@MANHASSET DR,33.950576,-84.319323
-84.2970329999999,33.938991,382,903125,37010,TILLY MILL RD@CHERRING DR,33.938991,-84.297033
-84.3196799999999,33.9502600000001,383,903126,37011,MT VERNON RD@VERMACK RD,33.95026,-84.31968
-84.301552,33.944782,384,903127,37012,TILLY MILL RD@DARTFORD DR,33.944782,-84.301552
-84.32686,33.9477900000001,385,903128,37013,MT VERNON RD@VERNON RIDGE DR,33.94779,-84.32686
-84.299725,33.942707,386,903208,37014,TILLY MILL RD @ TILLINGHAM CT,33.942707,-84.299725
-84.302981,33.9463660000001,387,902683,37016,TILLY MILL RD@STEPHENS WALK,33.946366,-84.302981
-84.33149,33.9469580000001,388,902684,37017,MT VERNON RD@DUNWOODY VILLAGE PKWY,33.946958,-84.33149
-84.302193,33.944939,389,902685,37018,TILLY MILL RD@DARTFORD DR,33.944939,-84.302193
-84.3147,33.95162,390,902686,37019,MT VERNON RD@STRATHAM DR,33.95162,-84.3147
-84.303415,33.946676,391,902736,37020,TILLY MILL RD @ STEPHENS WALK,33.946676,-84.303415
-84.31463,33.951781,392,902737,37021,MT VERNON RD@STRATHAM DR,33.951781,-84.31463
-84.3054279999999,33.9525570000001,393,902738,37022,TILLY MILL RD@SANDELL DR,33.952557,-84.305428
-84.305862,33.9528540000001,394,902687,37024,TILLY MILL RD@SANDELL DR,33.952854,-84.305862
-84.3039699999999,33.9564060000001,395,902688,37026,MT VERNON RD@CEDAR CHASE,33.956406,-84.30397
-84.302509,33.9580350000001,396,902689,37028,JETT FERRY RD@MT VERNON RD,33.958035,-84.302509
-84.301975,33.957865,397,902690,37030,MT VERNON RD @ JETT FERRY RD,33.957865,-84.301975
-84.30481,33.949333,398,902740,37032,TILLY MILL RD@HOLLAND CT,33.949333,-84.30481
-84.286464,33.936992,399,902741,37034,PEELER RD@GLENBONNIE DR,33.936992,-84.286464
-84.285592,33.937242,400,902742,37036,PEELER RD@EDISON RD,33.937242,-84.285592
-84.2829869999999,33.939174,401,902743,37038,PEELER RD@HAPPY HOLLOW RD,33.939174,-84.282987
-84.278465,33.939846,402,902874,37042,PEELER RD@LAKESIDE DR,33.939846,-84.278465
-84.275369,33.9403620000001,403,902875,37044,PEELER RD@FOUR OAKS CT,33.940362,-84.275369
-84.273157,33.940611,404,902876,37046,PEELER RD@TWIN LAKES TRL,33.940611,-84.273157
-84.2708019999999,33.941174,405,902805,37048,WINTERS CHAPEL RD @ PEELER RD,33.941174,-84.270802
-84.269213,33.939106,406,902806,37050,WINTERS CHAPEL RD@4920,33.939106,-84.269213
-84.2668399999999,33.9354090000001,407,902807,37052,WINTERS CHAPEL RD @ WOMACK DR,33.935409,-84.26684
-84.266111,33.933932,408,902833,37054,WINTERS CHAPEL RD @ 4739,33.933932,-84.266111
-84.309544,33.931727,409,902877,37060,PEELER RD@VILLAGE MILL RD,33.931727,-84.309544
-84.306253,33.9349300000001,410,902878,37062,PEELER RD @ ADAMS RD,33.93493,-84.306253
-84.3066019999999,33.9347690000001,411,902879,37064,PEELER RD@EQUESTRIAN WAY,33.934769,-84.306602
-84.298553,33.9360120000001,412,902880,37068,PEELER RD@CHERRING DR,33.936012,-84.298553
-84.294462,33.9370930000001,413,902835,37072,TILLY MILL RD @ N PEACHTREE RD,33.937093,-84.294462
-84.2999849999999,33.9434840000001,414,902836,37074,TILLY MILL RD @ WOMACK RD,33.943484,-84.299985
-84.3054,33.954907,415,902837,37076,TILLY MILL RD@MT VERNON RD,33.954907,-84.3054
-84.300133,33.959162,416,902934,37078,DUNWOODY CLUB DR@SAFFRON DR,33.959162,-84.300133
-84.305084,33.949399,417,902935,37080,TILLY MILL RD@HOLLAND CT,33.949399,-84.305084
-84.294026,33.9366810000001,418,902936,37082,TILLY MILL RD @ N PEACHTREE RD,33.936681,-84.294026
-84.295131,33.9334030000001,419,903016,37084,N PEACHTREE RD@BARCLAY DR,33.933403,-84.295131
-84.29563,33.9292110000001,420,903017,37086,N PEACHTREE RD @ PEACHFORD RD,33.929211,-84.29563
-84.295604,33.926697,421,903018,37088,N PEACHTREE RD@BROOKHURST DR,33.926697,-84.295604
-84.298756,33.935796,422,902937,37092,PEELER RD@CHERRING DR,33.935796,-84.298756
-84.307964,33.9342770000001,423,903020,37100,PEELER RD@OLDE VILLAGE LN,33.934277,-84.307964
-84.311822,33.9300710000001,424,903021,37102,PEELER RD@INDEPENDENCE SQ,33.930071,-84.311822
-84.295901,33.93584,425,903144,37110,PEELER RD@CHERRING LN,33.93584,-84.295901
-84.4380829999999,33.9078500000001,426,903137,38002,RIVEREDGE PKY NW @ 1600,33.90785,-84.438083
-84.4330399999999,33.9084140000001,427,903140,38008,NORTHSIDE DR@INTERSTATE NORTH PKY,33.908414,-84.43304
-84.431746,33.9093590000001,428,903182,38012,INTERSTATE NORTH PKY @ 5665,33.909359,-84.431746
-84.37139,33.9189400000001,429,903221,39002,HAMMOND DR@KAYRON DR,33.91894,-84.37139
-84.3716229999999,33.919091,430,903222,39004,HAMMOND DR@KAYRON DR,33.919091,-84.371623
-84.367583,33.92218,431,903184,39018,JOHNSON FERRY RD NE@GLENRIDGE DR NE,33.92218,-84.367583
-84.3679969999999,33.9224310000001,432,902746,39024,JOHNSON FERRY RD NE @ GLENRIDGE DR NE,33.922431,-84.367997
-84.37916,33.9016280000001,433,902747,39040,ROSWELL RD NE@GLENRIDGE DR NE,33.901628,-84.37916
-84.378606,33.9027830000001,434,902696,39042,ROSWELL RD NE @ GLENRIDGE DR NE,33.902783,-84.378606
-84.3786949999999,33.9053960000001,435,902697,39044,ROSWELL RD NE @ 5491,33.905396,-84.378695
-84.3787179999999,33.907231,436,902698,39046,ROSWELL RD NE @ 5531,33.907231,-84.378718
-84.3787839999999,33.909002,437,902699,39048,ROSWELL RD NE @ LAKE PLACID DR NE,33.909002,-84.378784
-84.3795499999999,33.9137200000001,438,902749,39052,ROSWELL RD NE @ ALLEN RD,33.91372,-84.37955
-84.379085,33.918641,439,902751,39058,ROSWELL RD NE @ HAMMOND DR NE,33.918641,-84.379085
-84.379218,33.9227030000001,440,902700,39060,ROSWELL RD NE @ HILDERBRAND DR NE,33.922703,-84.379218
-84.3794149999999,33.9270110000001,441,902702,39064,ROSWELL RD NE @ SANDY SPRINGS CIR NE,33.927011,-84.379415
-84.3787839999999,33.91918,442,902703,39065,HAMMOND DR NE @ ROSWELL RD,33.91918,-84.378784
-84.379111,33.925191,443,906303,39067,ROSWELL RD @ JOHNSON FERRY RD,33.925191,-84.379111
-84.3794559999999,33.9291420000001,444,906304,39068,ROSWELL RD NE @ CROMWELL RD NE,33.929142,-84.379456
-84.37841,33.90342,445,906305,39070,ROSWELL RD NE @ GLENRIDGE DR NE,33.90342,-84.37841
-84.3786729999999,33.907636,446,906306,39072,ROSWELL RD NE @ 5555,33.907636,-84.378673
-84.378654,33.909522,447,906290,39074,ROSWELL RD NE @ LAKE PLACID DR NE,33.909522,-84.378654
-84.379242,33.9140170000001,448,906292,39078,ROSWELL RD NE @ ALLEN RD NE,33.914017,-84.379242
-84.3792349999999,33.915285,449,906293,39080,ROSWELL RD NE @ CARPENTER DR NE,33.915285,-84.379235
-84.379041,33.9175220000001,450,906307,39082,ROSWELL RD NE @ 5925,33.917522,-84.379041
-84.378862,33.9188310000001,451,906308,39084,ROSWELL RD NE@HAMMOND DR NE,33.918831,-84.378862
-84.378914,33.9200530000001,452,906309,39086,ROSWELL RD NE @ SANDY SPRINGS PL NE,33.920053,-84.378914
-84.379102,33.922714,453,906294,39090,ROSWELL RD NE @ HILDERBRAND DR NE,33.922714,-84.379102
-84.3790109999999,33.9237210000001,454,906326,39092,ROSWELL RD NE@MT VERNON HWY NE,33.923721,-84.379011
-84.3790089999999,33.925374,455,906330,39095,ROSWELL RD NE@JOHNSON FERRY RD NE,33.925374,-84.379009
-84.37906,33.92717,456,906331,39096,ROSWELL RD NE@SANDY SPRINGS CIR NE,33.92717,-84.37906
-84.3791899999999,33.929308,457,906332,39098,ROSWELL RD NE @ VERNON WOODS DR NE,33.929308,-84.37919
-84.379717,33.9344170000001,458,906360,39100,ROSWELL RD NE @ 6509,33.934417,-84.379717
-84.3792359999999,33.9162420000001,459,906361,39102,ROSWELL RD NE @ CLIFTWOOD DR NE,33.916242,-84.379236
-84.3773669999999,33.9243690000001,460,906362,39117,MT VERNON HWY@BOYLSTON DR,33.924369,-84.377367
-84.370644,33.9230380000001,461,906363,39124,JOHNSON FERRY RD@KAYRON DR,33.923038,-84.370644
-84.370666,33.923119,462,906333,39126,JOHNSON FERRY RD@KAYRON DR,33.923119,-84.370666
-84.379042,33.920108,463,906334,39144,ROSWELL RD NE @ SANDY SPRINGS PL NE,33.920108,-84.379042
-84.3785369999999,33.9051670000001,464,906335,39150,ROSWELL RD NE @ 5491,33.905167,-84.378537
-84.3908949999999,33.9196370000001,465,903096,39184,MT VERNON HWY NW @ HAMMOND DR NW,33.919637,-84.390895
-84.376452,33.924333,466,903157,39188,JOHNSON FERRY RD@MT VERNON HWY,33.924333,-84.376452
-84.3782449999999,33.924741,467,903158,39190,JOHNSON FERRY RD NE @ ROSWELL RD,33.924741,-84.378245
-84.37488,33.92371,468,902662,39192,JOHNSON FERRY RD@HARLESTON RD,33.92371,-84.37488
-84.374948,33.9236720000001,469,902663,39194,JOHNSON FERRY RD@HARLESTON RD,33.923672,-84.374948
-84.3764389999999,33.9192190000001,470,902664,39196,HAMMOND DR@BOYLSTON DR,33.919219,-84.376439
-84.376903,33.9190360000001,471,902753,39198,HAMMOND DR @ BOYLSTON DR,33.919036,-84.376903
-84.363267,33.9189240000001,472,902665,40017,HAMMOND DR NE @ GLENRIDGE DR NE,33.918924,-84.363267
-84.3527319999999,33.9189720000001,473,902704,40038,HAMMOND DR @ CONCOURSE PKWY,33.918972,-84.352732
-84.3546709999999,33.9189000000001,474,902816,40050,HAMMOND DR NE @ 1005,33.9189,-84.354671
-84.349954,33.9186950000001,475,902888,40086,HAMMOND DR @ PEACHTREE DUNWOODY RD,33.918695,-84.349954
-84.338831,33.9222140000001,476,902889,40118,ASHFORD DUNWOODY RD @ RAVINIA DR,33.922214,-84.338831
-84.3519439999999,33.908537,477,902890,40130,PEACHTREE DUNWOODY RD @ HOLLIS COBB CIR,33.908537,-84.351944
-84.338791,33.9209770000001,478,902884,40152,ASHFORD DUNWOODY RD NE@RAVINIA DR,33.920977,-84.338791
-84.3374699999999,33.9238250000001,479,902885,40156,PERIMETER CTR E @ ASHFORD DUNWOODY,33.923825,-84.33747
-84.336697,33.926156,480,902886,40158,PERIMETER CTR E @ ASHFORD DUNWOODY,33.926156,-84.336697
-84.336617,33.926453,481,902891,40160,PERIMETER CTR E @ ASHFORD DUNWOODY RD,33.926453,-84.336617
-84.35239,33.907455,482,903034,40208,PEACHTREE DUNWOODY RD @ JOHNSON FERRY RD,33.907455,-84.35239
-84.349888,33.9189010000001,483,902999,40216,HAMMOND DR NE @ PEACHTREE DUNWOODY RD,33.918901,-84.349888
-84.345629,33.9205400000001,484,903000,40218,HAMMOND DR @ PERIMETER CENTER PKY,33.92054,-84.345629
-84.290004,33.8908690000001,485,903001,40256,CHAMBLEE DUNWOODY RD @ CLAIRVIEW DR,33.890869,-84.290004
-84.356509,33.919048,486,903033,40258,HAMMOND DR @ CONCOURSE PKY NE,33.919048,-84.356509
-84.360336,33.919113,487,902868,40259,HAMMOND DR NE @ BARFIELD RD NE,33.919113,-84.360336
-84.357068,33.9188720000001,488,902869,40260,HAMMOND RD NE @ CONCOURSE PKY NE,33.918872,-84.357068
-84.337818,33.923574,489,902828,40298,PERIMETER CTR E @ ASHFORD DUNWOODY RD,33.923574,-84.337818
-84.330101,33.9221020000001,490,902867,40300,PERIMETER CTR E @ LINCOLN PKY E,33.922102,-84.330101
-84.337395,33.9320670000001,491,903198,40304,ASHFORD DUNWOODY RD@MEADOW LANE RD,33.932067,-84.337395
-84.363941,33.9190570000001,492,903199,40318,HAMMOND DR@GLENRIDGE DR,33.919057,-84.363941
-84.350969,33.9318210000001,493,903164,40506,SANDY SPRINGS STATION,33.931821,-84.350969
-84.351215,33.9105690000001,494,903165,40900,MEDICAL CENTER STATION,33.910569,-84.351215
-84.344734,33.9209690000001,495,903009,40910,DUNWOODY STATION,33.920969,-84.344734
-84.3604339999999,33.9189430000001,496,903010,40914,HAMMOND DR NE @ BARFIELD RD,33.918943,-84.360434
-84.334572,33.923575,497,903039,40916,PERIMETER CTR E @ 74,33.923575,-84.334572
-84.332011,33.9214900000001,498,903040,40918,PERIMETER CTR E @ 64,33.92149,-84.332011
-84.330595,33.9256960000001,499,903041,40920,PERIMETER CTR E @ 24,33.925696,-84.330595
-84.329822,33.92438,500,903011,40924,PERIMETER CTR E @ 50,33.92438,-84.329822
-84.3306499999999,33.925624,501,903012,40926,PERIMETER CTR E @ 24,33.925624,-84.33065
-84.334463,33.923888,502,903013,40928,PERIMETER CTR E @ 72,33.923888,-84.334463
-84.332639,33.92567,503,903014,40930,PERIMETER CTR E @ 14,33.92567,-84.332639
-84.331761,33.92157,504,903043,40932,PERIMETER CTR E @ 53,33.92157,-84.331761
-84.2951429999999,33.9045140000001,505,903044,41002,N PEACHTREE RD @ PEACHTREE INDUSTRIAL,33.904514,-84.295143
-84.2962669999999,33.9078680000001,506,903076,41004,N PEACHTREE RD @ 3930,33.907868,-84.296267
-84.31076,33.92605,507,903077,41005,DUNWOODY PARK @ N SHALLOWFORD RD,33.92605,-84.31076
-84.2973919999999,33.9102820000001,508,903015,41006,N PEACHTREE RD @ N SHALLOWFORD RD,33.910282,-84.297392
-84.298571,33.9126160000001,509,903037,41007,N PEACHTREE RD @ SPRING WALK CT,33.912616,-84.298571
-84.3147099999999,33.9240760000001,510,903038,41009,DUNWOODY PARK @ CHAMBLEE DUNWOODY RD,33.924076,-84.31471
-84.294073,33.8986550000001,511,902676,41011,N PEACHTREE RD @ TALLEY DR,33.898655,-84.294073
-84.294785,33.901482,512,902757,41012,N PEACHTREE RD @ TERRELL DR,33.901482,-84.294785
-84.313904,33.924049,513,902758,41013,DUNWOODY PARK DR @ DUNWOODY PARK N,33.924049,-84.313904
-84.295563,33.904251,514,902759,41014,N PEACHTREE RD @ PEACHTREE INDUSTRIAL BLVD,33.904251,-84.295563
-84.297065,33.9096200000001,515,902760,41016,N PEACHTREE RD @ PLANTATION LN,33.90962,-84.297065
-84.298307,33.911419,516,902677,41018,N PEACHTREE RD @ N SHALLOWFORD RD,33.911419,-84.298307
-84.299004,33.912651,517,902678,41020,N PEACHTREE RD @ SPRING WALK CT,33.912651,-84.299004
-84.2990389999999,33.9170710000001,518,902679,41024,N PEACHTREE RD @ PERIMETER PARK DR,33.917071,-84.299039
-84.298577,33.917182,519,902680,41028,N PEACHTREE RD @ PERIMETER PARK DR,33.917182,-84.298577
-84.29715,33.9185870000001,520,902761,41030,N PEACHTREE RD @ SAVOY DR,33.918587,-84.29715
-84.2973249999999,33.9188800000001,521,902762,41032,N PEACHTREE RD @ SAVOY DR,33.91888,-84.297325
-84.296748,33.9220490000001,522,902763,41034,N PEACHTREE RD@DUNWOODY XING,33.922049,-84.296748
-84.2959059999999,33.9235610000001,523,902764,41036,N PEACHTREE RD @ KINGS POINT CIR,33.923561,-84.295906
-84.2952079999999,33.9262630000001,524,902681,41037,N PEACHTREE RD @ BROOKHURST DR,33.926263,-84.295208
-84.314902,33.92805,525,903212,41063,CHAMBLEE DUNWOODY RD @ N SHALLOWFORD RD,33.92805,-84.314902
-84.3148669999999,33.9278160000001,526,903174,41074,CHAMBLEE DUNWOODY RD @ N SHALLOWFORD RD,33.927816,-84.314867
-84.303806,33.9175770000001,527,905596,41098,N SHALLOWFORD RD @ COMMODORE DR,33.917577,-84.303806
-84.305015,33.9196630000001,528,905597,41100,SHALLOWFORD RD@SAVOY DR,33.919663,-84.305015
-84.3049379999999,33.9196890000001,529,905598,41102,N SHALLOWFORD RD @ SAVOY DR,33.919689,-84.304938
-84.3054279999999,33.921166,530,905599,41104,N SHALLOWFORD RD @ COTILLION DR,33.921166,-84.305428
-84.305581,33.9212470000001,531,905482,41106,SHALLOWFORD RD@COTILLION DR,33.921247,-84.305581
-84.306676,33.9234700000001,532,905483,41108,N SHALLOWFORD RD @ PEACHFORD RD,33.92347,-84.306676
-84.308077,33.924919,533,905484,41110,N SHALLOWFORD RD @ 4500,33.924919,-84.308077
-84.308914,33.925534,534,905485,41114,N SHALLOWFORD RD@PERNOSHALL CT,33.925534,-84.308914
-84.3089459999999,33.9257490000001,535,905600,41116,N SHALLOWFORD RD @ PERNOSHALL CT,33.925749,-84.308946
-84.310962,33.926071,536,905601,41118,DUNWOODY PARK @ N SHALLOWFORD RD,33.926071,-84.310962
-84.313337,33.929696,537,905834,41126,PEELER RD @ SHALLOWFORD RD,33.929696,-84.313337
-84.311495,33.9300890000001,538,905716,41128,PEELER RD@INDEPENDENCE SQ,33.930089,-84.311495
-84.3069409999999,33.923257,539,905836,41150,SHALLOWFORD RD@PEACHFORD RD,33.923257,-84.306941
-84.29578,33.9062700000001,540,905837,41152,N PEACHTREE RD @ PEACHTREE INDUSTRIAL BLVD,33.90627,-84.29578
-84.2989919999999,33.913683,541,905838,41154,N PEACHTREE RD @ N HILL PKY,33.913683,-84.298992
-84.296276,33.922156,542,905720,41156,N PEACHTREE RD @ DUNWOODY XING,33.922156,-84.296276
-84.296204,33.9242150000001,543,905721,41158,N PEACHTREE RD@FOREST TRL,33.924215,-84.296204
-84.299101,33.9137190000001,544,905722,41160,N PEACHTREE RD @ N HILL PKY,33.913719,-84.299101
-84.295945,33.9058610000001,545,905723,41162,N PEACHTREE RD @ PEACHTREE INDUSTRIAL BLVD,33.905861,-84.295945
-84.295509,33.895703,546,905839,41164,PEACHTREE RD @ INGERSOLL RAND DR,33.895703,-84.295509
-84.3077699999999,33.9341180000001,547,905840,41166,PEELER RD@OLDE VILLAGE LN,33.934118,-84.30777
-84.307903,33.9241880000001,548,906075,41168,N SHALLOWFORD RD @ PEACHFORD RD,33.924188,-84.307903
-84.2994619999999,33.916567,549,906076,41170,N PEACHTREE RD @ GENTRYS WALK,33.916567,-84.299462
-84.278716,33.9006830000001,550,906077,42002,PARK AVE @ BUFORD HWY NE,33.900683,-84.278716
-84.2798799999999,33.91891,551,905966,42007,WOODWIN RD @ TILLY MILL RD,33.91891,-84.27988
-84.28113,33.9224100000001,552,905968,42009,TILLY MILL RD @ PEACHTREE INDUSTRIAL BLVD,33.92241,-84.28113
-84.278342,33.924765,553,906079,42011,PEACHTREE INDUSTRIAL BLVD @ PEACHTREE SQ,33.924765,-84.278342
-84.276806,33.9254,554,906081,42013,PEACHTREE INDUSTRIAL BLVD @ PEACHTREE SQ,33.9254,-84.276806
-84.265047,33.9293940000001,555,905970,42015,WINTERS CHAPEL RD @ AMWILER RD NW,33.929394,-84.265047
-84.269846,33.9064690000001,556,905971,42016,BUFORD HWY@5700,33.906469,-84.269846
-84.26731,33.92805,557,906015,42017,WINTERS CHAPEL RD @ CLARKE DR,33.92805,-84.26731
-84.276603,33.9007540000001,558,906016,42018,BUFORD HWY NE @ CHESTNUT DR,33.900754,-84.276603
-84.26926,33.9263300000001,559,905262,42019,WINTERS CHAPEL RD @ RENAISSANCE BLVD,33.92633,-84.26926
-84.271285,33.905083,560,905263,42020,BUFORD HWY NE @ LONGMIRE WAY,33.905083,-84.271285
-84.270116,33.9249130000001,561,905264,42021,WINTERS CHAPEL RD @ HOMELAND DR,33.924913,-84.270116
-84.26247,33.91108,562,905375,42022,OAKCLIFF RD @ BUFORD HWY,33.91108,-84.26247
-84.27014,33.9208,563,905376,42023,WINTERS CHAPEL RD @ CHICOPEE RD,33.9208,-84.27014
-84.26971,33.91902,564,905377,42024,WINTERS CHAPEL RD @ OAKCLIFF RD,33.91902,-84.26971
-84.27038,33.9149400000001,565,905378,42025,WOODWIN RD @ WINTERS CHAPEL RD,33.91494,-84.27038
-84.269007,33.9069250000001,566,905379,42026,BUFORD HWY@MCELROY RD,33.906925,-84.269007
-84.2757099999999,33.9176000000001,567,905265,42027,WOODWIN RD @ 2766,33.9176,-84.27571
-84.26686,33.9089020000001,568,905266,42028,BUFORD HWY@MCELROY RD,33.908902,-84.26686
-84.2943339999999,33.90139,569,905383,42040,N PEACHTREE RD @ TERRELL DR,33.90139,-84.294334
-84.294518,33.9056370000001,570,905311,42042,PEACHTREE INDUSTRIAL BLVD @ JOHN GLENN DR,33.905637,-84.294518
-84.2902789999999,33.909609,571,906147,42048,PEACHTREE INDUSTRIAL BLVD @ PEACHTREE RD,33.909609,-84.290279
-84.281784,33.9241260000001,572,906173,42050,TILLY MILL RD @ PEACHTREE INDUSTRIAL BLVD,33.924126,-84.281784
-84.2827,33.926346,573,906174,42052,TILLY MILL RD@STONINGTON RD,33.926346,-84.2827
-84.2831649999999,33.927448,574,906175,42054,TILLY MILL RD@BINGHAMTON DR,33.927448,-84.283165
-84.283711,33.929018,575,906176,42056,TILLY MILL RD@LAURELWOOD RD,33.929018,-84.283711
-84.2852129999999,33.932553,576,906148,42057,TILLY MILL RD @ BRIERS NORTH DR,33.932553,-84.285213
-84.280652,33.9243450000001,577,906149,42058,PEACHTREE INDUSTRIAL BLVD @ TILLY MILL RD,33.924345,-84.280652
-84.277437,33.9259010000001,578,906151,42062,PEACHTREE INDUSTRIAL BLVD @ HOMELAND DR,33.925901,-84.277437
-84.275018,33.9269110000001,579,906177,42064,PEACHTREE INDUSTRIAL BLVD@6706,33.926911,-84.275018
-84.267836,33.9299950000001,580,906178,42066,PEACHTREE INDUSTRIAL BLVD @ PEACHTREE PLACE PKWY,33.929995,-84.267836
-84.2906819999999,33.9096720000001,581,906179,42068,PEACHTREE IND BLVD @ N SHALLOWFORD RD,33.909672,-84.290682
-84.29454,33.9057090000001,582,906180,42070,PEACHTREE IND BLVD @ JOHN GLENN DR,33.905709,-84.29454
-84.275968,33.905443,583,906199,42074,NEW PEACHTREE RD @ 6145,33.905443,-84.275968
-84.273135,33.9076250000001,584,906200,42076,NEW PEACHTREE RD @ LONGMIRE WAY,33.907625,-84.273135
-84.267686,33.910943,585,906206,42080,NEW PEACHTREE RD @ MCELROY RD,33.910943,-84.267686
-84.267569,33.911097,586,906207,42081,NEW PEACHTREE RD @ MCELROY RD,33.911097,-84.267569
-84.265572,33.9118540000001,587,906208,42082,NEW PEACHTREE RD @ OAKCLIFF RD,33.911854,-84.265572
-84.2627189999999,33.911012,588,906232,42084,OAKCLIFF RD@3061,33.911012,-84.262719
-84.2546619999999,33.9066490000001,589,906234,42088,OAKCLIFF RD@PIN OAK CIR,33.906649,-84.254662
-84.254533,33.9049840000001,590,906235,42090,OAKCLIFF RD @ 3417,33.904984,-84.254533
-84.253336,33.902764,591,906209,42092,OAKCLIFF RD@OAKCLIFF INDUSTRIAL ST,33.902764,-84.253336
-84.2507889999999,33.90099,592,906210,42094,OAKCLIFF RD @ NORTHCREST RD,33.90099,-84.250789
-84.247966,33.9033690000001,593,906211,42096,OAKCLIFF RD@OAKCLIFF INDUSTRIAL CT,33.903369,-84.247966
-84.2465119999999,33.9045400000001,594,906212,42098,OAKCLIFF RD @ PLEASANTDALE RD,33.90454,-84.246512
-84.244862,33.9028480000001,595,906236,42100,PLEASANTDALE RD @ 4126,33.902848,-84.244862
-84.265991,33.911662,596,906237,42102,NEW PEACHTREE RD @ OAKCLIFF RD,33.911662,-84.265991
-84.2596819999999,33.9103660000001,597,906259,42106,OAKCLIFF RD@WINDSOR OAK DR,33.910366,-84.259682
-84.254553,33.906577,598,906260,42108,OAKCLIFF RD@PIN OAK CIR,33.906577,-84.254553
-84.254043,33.903964,599,906266,42110,OAKCLIFF RD@3420,33.903964,-84.254043
-84.252762,33.9022370000001,600,906267,42112,OAKCLIFF RD @ OAKCLIFF INDUSTRIAL ST,33.902237,-84.252762
-84.251091,33.9010890000001,601,906268,42114,OAKCLIFF RD @ NORTHCREST RD,33.901089,-84.251091
-84.247966,33.9034770000001,602,906269,42116,OAKCLIFF RD@OAKCLIFF INDUSTRIAL CT,33.903477,-84.247966
-84.247112,33.904295,603,906274,42118,OAKCLIFF RD @ PLEASANTDALE RD,33.904295,-84.247112
-84.27363,33.907452,604,906276,42122,NEW PEACHTREE RD @ LONGMIRE WAY,33.907452,-84.27363
-84.2759359999999,33.9056220000001,605,906277,42124,NEW PEACHTREE RD @ 6190,33.905622,-84.275936
-84.244657,33.902794,606,906270,42126,PLEASANTDALE RD @ 4111,33.902794,-84.244657
-84.2727179999999,33.9279300000001,607,906271,42130,PEACHTREE INDUSTRIAL BLVD@6670,33.92793,-84.272718
-84.27044,33.9288960000001,608,906272,42144,PEACHTREE INDUSTRIAL BLVD@6750,33.928896,-84.27044
-84.2593859999999,33.91024,609,905338,42166,OAKCLIFF RD@PIN OAK CIR,33.91024,-84.259386
-84.280467,33.9024240000001,610,905508,42900,DORAVILLE STATION,33.902424,-84.280467
-84.38097,33.8729710000001,611,905577,44002,ROSWELL RD NE @ MIDVALE DR NE,33.872971,-84.38097
-84.380612,33.8752710000001,612,905578,44004,ROSWELL RD NE @ WIEUCA RD NE,33.875271,-84.380612
-84.379764,33.877285,613,905579,44006,ROSWELL RD NE @ DILBECK PL NW,33.877285,-84.379764
-84.379733,33.879245,614,905627,44008,ROSWELL RD NE @ WINDSOR PKWY NE,33.879245,-84.379733
-84.37994,33.8829700000001,615,905629,44014,ROSWELL RD NE @ MYSTIC PL NE,33.88297,-84.37994
-84.381089,33.873007,616,905580,44018,ROSWELL RD NE @ MIDVALE DR NE,33.873007,-84.381089
-84.380348,33.876251,617,905626,44020,ROSWELL RD NE @ WIEUCA RD NE,33.876251,-84.380348
-84.379915,33.879306,618,905812,44024,ROSWELL RD NE @ WINDSOR PKWY NE,33.879306,-84.379915
-84.381388,33.895022,619,905814,44028,ROSWELL RD NE @ OSNER DR NE,33.895022,-84.381388
-84.3815539999999,33.8975280000001,620,905743,44030,ROSWELL RD NE @ MT PARAN RD NE,33.897528,-84.381554
-84.380478,33.9002080000001,621,905744,44032,ROSWELL RD NE @ MARYEANNA DR,33.900208,-84.380478
-84.380128,33.883138,622,905746,44036,ROSWELL RD NE@MYSTIC PL NE,33.883138,-84.380128
-84.380749,33.884418,623,905815,44038,ROSWELL RD NE@MYSTIC DR,33.884418,-84.380749
-84.381677,33.8872630000001,624,905863,44042,ROSWELL RD NE @ LONG ISLAND DR NE,33.887263,-84.381677
-84.381535,33.889915,625,905864,44045,ROSWELL RD NE@W BELLE ISLE RD NE,33.889915,-84.381535
-84.3811899999999,33.8924000000001,626,905869,44046,ROSWELL RD NE@HARDEMAN RD,33.8924,-84.38119
-84.380978,33.8849460000001,627,905870,44058,ROSWELL RD NE @ MYSTIC CT,33.884946,-84.380978
-84.3816219999999,33.8870390000001,628,905871,44062,ROSWELL RD NE @ LONG ISLAND DR NE,33.887039,-84.381622
-84.381275,33.8901880000001,629,905988,44064,ROSWELL RD NE @ BELLE ISLE RD NE,33.890188,-84.381275
-84.3811249999999,33.892866,630,905989,44066,ROSWELL RD NE @ PARK AVE NE,33.892866,-84.381125
-84.3814199999999,33.8977100000001,631,906102,44074,ROSWELL RD NE@BEACHLAND DR NE,33.89771,-84.38142
-84.3799999999999,33.9004400000001,632,905991,44078,ROSWELL RD NE@GREEN HILL RD NE,33.90044,-84.38
-84.332355,33.871537,633,905587,45104,PEACHTREE RD NE @ HERMANCE DR NE,33.871537,-84.332355
-84.33044,33.8736210000001,634,905588,45106,PEACHTREE RD @ LANIER DR,33.873621,-84.33044
-84.3302209999999,33.8739420000001,635,905471,45108,PEACHTREE RD@LANIER DR,33.873942,-84.330221
-84.332475,33.871633,636,905472,45110,PEACHTREE RD@HERMANCE DR,33.871633,-84.332475
-84.3020059999999,33.8895210000001,637,905707,46008,NEW PEACHTREE RD @ HOOD AVE,33.889521,-84.302006
-84.317056,33.886892,638,905708,46010,JOHNSON FERRY RD @ JEFFERSON CIR S,33.886892,-84.317056
-84.309379,33.888404,639,905709,46014,CHAMBLEE TUCKER @ PEACHTREE RD,33.888404,-84.309379
-84.318524,33.888409,640,905825,46020,JOHNSON FERRY RD @ KESWICK DR,33.888409,-84.318524
-84.320977,33.8905260000001,641,905827,46022,JOHNSON FERRY RD NE @ DURDEN DR NE,33.890526,-84.320977
-84.3278579999999,33.875326,642,905951,46032,PEACHTREE RD @ ASHFORD DUNWOODY RD,33.875326,-84.327858
-84.326092,33.8763240000001,643,905952,46034,PEACHTREE RD NE @ REDDING RD NE,33.876324,-84.326092
-84.307417,33.8932,644,906067,46046,PEACHTREE IND BLVD @ MILLER DR,33.8932,-84.307417
-84.306124,33.8941600000001,645,906068,46048,PEACHTREE IND BLVD @ PIERCE DR,33.89416,-84.306124
-84.304727,33.895455,646,906069,46050,PEACHTREE INDUSTRIAL BLVD @ CHAMBLEE DUNWOODY RD,33.895455,-84.304727
-84.302744,33.89745,647,905954,46052,PEACHTREE INDUSTRIAL BLVD @ IVY LN,33.89745,-84.302744
-84.3018729999999,33.8984350000001,648,906003,46058,PEACHTREE IND BLVD @ BROAD ST,33.898435,-84.301873
-84.302788,33.89754,649,905247,46060,PEACHTREE BLVD @ IVY LN,33.89754,-84.302788
-84.305485,33.8949710000001,650,905361,46062,PEACHTREE IND BLVD @ CHAMBLEE DUNWOODY,33.894971,-84.305485
-84.3078609999999,33.8932500000001,651,905363,46066,PEACHTREE IND BLVD @ MILLER DR,33.89325,-84.307861
-84.313375,33.888655,652,905248,46070,PEACHTREE IND BLVD @ CLAIRMONT RD,33.888655,-84.313375
-84.320237,33.8812810000001,653,905249,46078,PEACHTREE RD NE @ 4839,33.881281,-84.320237
-84.325659,33.8766900000001,654,905250,46080,PEACHTREE RD @ REDDING RD,33.87669,-84.325659
-84.3278799999999,33.8753740000001,655,905251,46082,PEACHTREE RD@ASHFORD DUNWOODY RD,33.875374,-84.32788
-84.294586,33.8857310000001,656,905538,46118,CHAMBLEE TUCKER RD @ W HOSPITAL AVE,33.885731,-84.294586
-84.2978689999999,33.885752,657,905539,46120,CHAMBLEE TUCKER RD @ CATALINA DR,33.885752,-84.297869
-84.300507,33.8857610000001,658,905608,46122,CHAMBLEE TUCKER RD @ HOOD AVE,33.885761,-84.300507
-84.3033599999999,33.8857770000001,659,905609,46126,CHAMBLEE TUCKER RD @ WATKINS AVE,33.885777,-84.30336
-84.305,33.885818,660,905610,46128,CHAMBLEE TUCKER RD @ NEW PEACHTREE R,33.885818,-84.305
-84.297771,33.885591,661,905650,46132,CHAMBLEE TUCKER RD @ FLIGHTWAY DR,33.885591,-84.297771
-84.307833,33.8859830000001,662,905842,46152,NEW PEACHTREE RD @ HARDEE AVE,33.885983,-84.307833
-84.308323,33.8857360000001,663,905725,46156,NEW PEACHTREE RD @ HARDEE AVE,33.885736,-84.308323
-84.301543,33.8896040000001,664,905895,46180,NEW PEACHTREE RD @ HOOD AVE,33.889604,-84.301543
-84.2995549999999,33.891373,665,906084,46184,NEW PEACHTREE RD @ CHAMBLEE DUNWOODY RD,33.891373,-84.299555
-84.296974,33.891784,666,906085,46186,CHAMBLEE DUNWOODY RD @ BLACKBURN WAY,33.891784,-84.296974
-84.321205,33.890517,667,906086,46201,JOHNSON FERRY RD NE @ DURDEN DR NE,33.890517,-84.321205
-84.3142139999999,33.8876080000001,668,905191,46202,PEACHTREE INDUSTRIAL BLVD @ MCGAW DR,33.887608,-84.314214
-84.311437,33.890095,669,905193,46204,PEACHTREE INDUSTRIAL BLVD @ CHAMBLEE TUCKER RD,33.890095,-84.311437
-84.309695,33.8887080000001,670,906019,46206,CHAMBLEE TUCKER RD @ 5193,33.888708,-84.309695
-84.30936,33.8722050000001,671,905314,46216,CLAIRMONT RD@TOBEY RD,33.872205,-84.30936
-84.309403,33.876358,672,905384,46218,CLAIRMONT RD@AIRPORT RD,33.876358,-84.309403
-84.309424,33.880609,673,905385,46220,CLAIRMONT RD@DYER CIR,33.880609,-84.309424
-84.309424,33.882005,674,905386,46222,CLAIRMONT RD NE@LAWSON WAY,33.882005,-84.309424
-84.3093949999999,33.882732,675,905387,46224,CLAIRMONT RD@WINGATE RD,33.882732,-84.309395
-84.310055,33.8852180000001,676,905315,46226,CLAIRMONT RD@NEW PEACHTREE RD,33.885218,-84.310055
-84.309635,33.8830520000001,677,905316,46234,CLAIRMONT RD NE @ WINGATE RD,33.883052,-84.309635
-84.30957,33.8821310000001,678,905317,46236,CLAIRMONT RD NE @ LAWSON DR,33.882131,-84.30957
-84.309579,33.880188,679,905318,46238,CLAIRMONT RD NE @ 5TH ST,33.880188,-84.309579
-84.309543,33.876833,680,906120,46240,CLAIRMONT RD NE @ 8TH ST,33.876833,-84.309543
-84.309565,33.87557,681,906121,46242,CLAIRMONT RD NE @ 9TH ST,33.87557,-84.309565
-84.317416,33.883044,682,906122,46262,PEACHTREE BLVD @ PEACHTREE RD,33.883044,-84.317416
-84.315009,33.886444,683,906123,46263,PEACHTREE IND BLVD @ JOHNSON FERRY,33.886444,-84.315009
-84.320503,33.8808980000001,684,905319,46264,PEACHTREE RD NE @ 4829,33.880898,-84.320503
-84.295647,33.885636,685,906155,46273,CHAMBLEE TUCKER RD @ W HOSPITAL AVE,33.885636,-84.295647
-84.301478,33.8918210000001,686,906181,46276,PEACHTREE RD@CHAMBLEE DUNWOODY WAY,33.891821,-84.301478
-84.325757,33.8919930000001,687,906214,46308,JOHNSON FERRY RD NE @ ASHFORD DUNWOODY RD NE,33.891993,-84.325757
-84.30993,33.8846600000001,688,906215,46310,CLAIRMONT RD NE @ NEW PEACHTREE RD,33.88466,-84.30993
-84.2968319999999,33.891847,689,906242,46328,CHAMBLEE DUNWOODY RD @ BLACKBURN WAY,33.891847,-84.296832
-84.318337,33.887661,690,905395,46334,JOHNSON FERRY RD NE @ GATEBURY CIR,33.887661,-84.318337
-84.315807,33.885612,691,905509,46336,PEACHTREE INDUSTRIAL BLVD @ JOHNSON FERRY RD,33.885612,-84.315807
-84.314791,33.886981,692,905398,46509,PEACHTREE IND BLVD @ MCGAW DR,33.886981,-84.314791
-84.305039,33.8876750000001,693,905514,46900,CHAMBLEE STATION - EAST LOOP,33.887675,-84.305039
-84.305504,33.888495,694,905515,46901,CHAMBLEE STATION - WEST LOOP,33.888495,-84.305504
-84.2824889999999,33.89993,695,905399,47002,NEW PEACHTREE RD @ 5918,33.89993,-84.282489
-84.2941739999999,33.874538,696,905747,47064,BUFORD HWY@WOODSIDE WAY,33.874538,-84.294174
-84.293397,33.876497,697,905748,47065,BUFORD HWY NE @ SHALLOWFORD TER,33.876497,-84.293397
-84.288221,33.885544,698,905631,47069,BUFORD HWY@CHAMBLEE TUCKER RD,33.885544,-84.288221
-84.2928699999999,33.877098,699,905632,47080,BUFORD HWY NE@SHALLOWFORD TER,33.877098,-84.29287
-84.291641,33.879169,700,905633,47082,BUFORD HWY NE@4725,33.879169,-84.291641
-84.290329,33.8816600000001,701,905634,47084,BUFORD HWY NE@BEVERLY HILLS DR,33.88166,-84.290329
-84.287,33.887817,702,905865,47092,BUFORD HWY NE @ 4995,33.887817,-84.287
-84.285942,33.8896140000001,703,905866,47094,BUFORD HWY NE @ SHALLOWFORD RD,33.889614,-84.285942
-84.284859,33.8914570000001,704,905867,47096,BUFORD HWY NE @ MCCLAVE DR,33.891457,-84.284859
-84.2851469999999,33.891333,705,905873,47100,BUFORD HWY NE @ MCCLAVE DR,33.891333,-84.285147
-84.2832529999999,33.8944450000001,706,905874,47102,BUFORD HWY NE @ 5203,33.894445,-84.283253
-84.281937,33.8961600000001,707,905875,47104,BUFORD HWY NE@5269,33.89616,-84.281937
-84.28361,33.89417,708,905876,47106,BUFORD HWY NE @ 5200,33.89417,-84.28361
-84.281877,33.896576,709,905994,47108,BUFORD HWY NE @ 5280,33.896576,-84.281877
-84.28022,33.897614,710,905995,47110,BUFORD HWY NE@OAKMONT AVE,33.897614,-84.28022
-84.2797629999999,33.898383,711,905996,47112,BUFORD HWY NE @ OAKMONT AVE,33.898383,-84.279763
-84.2711869999999,33.9053870000001,712,905997,47114,BUFORD HWY@LONGMIRE,33.905387,-84.271187
-84.275993,33.9014070000001,713,905877,47116,BUFORD HWY NE @ JESSE NORMAN WAY,33.901407,-84.275993
-84.300876,33.8920350000001,714,906112,47123,PEACHTREE RD@AMERICAN INDUSTRIAL W,33.892035,-84.300876
-84.2987019999999,33.8940440000001,715,906114,47125,PEACHTREE RD@BROAD ST,33.894044,-84.298702
-84.294776,33.895878,716,906108,47127,PEACHTREE RD @ N PEACHTREE RD,33.895878,-84.294776
-84.2938569999999,33.8967680000001,717,906109,47128,N PEACHTREE RD @ PEACHTREE RD,33.896768,-84.293857
-84.2938,33.8988190000001,718,906110,47130,N PEACHTREE RD @ CLEMSON DR,33.898819,-84.2938
-84.299407,33.89387,719,906115,47131,PEACHTREE RD@BROAD ST,33.89387,-84.299407
-84.294098,33.8964040000001,720,906116,47132,N PEACHTREE RD @ PEACHTREE RD,33.896404,-84.294098
-84.2973959999999,33.894593,721,906117,47133,PEACHTREE RD@BROAD ST,33.894593,-84.297396
-84.290012,33.8739190000001,722,905163,47134,SHALLOWFORD RD NE @ WOODSIDE WAY,33.873919,-84.290012
-84.287179,33.878742,723,905231,47135,SHALLOWFORD RD NE @ SHALLOWFORD PL,33.878742,-84.287179
-84.286895,33.880004,724,905232,47136,SHALLOWFORD RD NE @ BEVERLY HILLS DR,33.880004,-84.286895
-84.284812,33.8833450000001,725,905233,47137,SHALLOWFORD RD NE @ LAVENTURE DR,33.883345,-84.284812
-84.2849419999999,33.886088,726,905234,47139,SHALLOWFORD RD NE @ ADDISON DR,33.886088,-84.284942
-84.286194,33.8890870000001,727,905349,47140,CHAMBLEE DUNWOODY RD @ BUFORD HWY NE,33.889087,-84.286194
-84.2891549999999,33.890538,728,905356,47144,CHAMBLEE DUNWOODY RD @ CLAIRVIEW DR,33.890538,-84.289155
-84.292226,33.8917200000001,729,905350,47148,CHAMBLEE DUNWOODY RD @ CUMBERLAND DR,33.89172,-84.292226
-84.2945779999999,33.8918640000001,730,905351,47150,CHAMBLEE DUNWOODY RD @ W HOSPITAL AVE,33.891864,-84.294578
-84.263179,33.8805390000001,731,905352,47152,CHAMBLEE TUCKER RD@BARKSIDE CT,33.880539,-84.263179
-84.274536,33.8801960000001,732,905353,47158,CHAMBLEE TUCKER RD @ DEKALB TECHNOLOGY PKWY,33.880196,-84.274536
-84.278966,33.8823550000001,733,905403,47162,CHAMBLEE TUCKER RD @ HOLIDAY PL,33.882355,-84.278966
-84.281937,33.8832820000001,734,905404,47164,CHAMBLEE TUCKER RD @ BAGLEY DR,33.883282,-84.281937
-84.284843,33.8856470000001,735,905405,47166,CHAMBLEE TUCKER RD @ SHALLOWFORD RD,33.885647,-84.284843
-84.28986,33.88575,736,905406,47168,CHAMBLEE TUCKER RD @ CARROLL CIR,33.88575,-84.28986
-84.29155,33.8857570000001,737,905475,47170,CHAMBLEE TUCKER RD @ CUMBERLAND DR,33.885757,-84.29155
-84.2622739999999,33.880747,738,905522,47174,CHAMBLEE TUCKER RD@ALTON RD,33.880747,-84.262274
-84.2740899999999,33.8797030000001,739,905474,47180,CHAMBLEE TUCKER RD @ DRESDEN DR,33.879703,-84.27409
-84.275156,33.8806080000001,740,905589,47182,CHAMBLEE TUCKER RD @ DEKALB TECH PKWY,33.880608,-84.275156
-84.279576,33.8824090000001,741,905590,47184,CHAMBLEE TUCKER RD @ HOLIDAY PL,33.882409,-84.279576
-84.28515,33.8856060000001,742,905591,47186,CHAMBLEE TUCKER RD @ SHALLOWFORD RD,33.885606,-84.28515
-84.294406,33.885635,743,905592,47192,CHAMBLEE TUCKER RD @ 2331,33.885635,-84.294406
-84.2942399999999,33.8917480000001,744,905594,47204,CHAMBLEE DUNWOODY RD @ W HOSPITAL AVE,33.891748,-84.29424
-84.292226,33.891622,745,905595,47206,CHAMBLEE DUNWOODY RD @ CUMBERLAND DR,33.891622,-84.292226
-84.286934,33.8893560000001,746,905635,47208,CHAMBLEE DUNWOODY RD @ BUFORD HWY NE,33.889356,-84.286934
-84.285106,33.8861870000001,747,905640,47210,SHALLOWFORD RD NE @ CHAMBLEE TUCKER RD,33.886187,-84.285106
-84.284933,33.883744,748,905641,47212,SHALLOWFORD RD NE @ LA VENTURE DR,33.883744,-84.284933
-84.286012,33.8814980000001,749,905828,47214,SHALLOWFORD RD NE @ ORTEGA WAY,33.881498,-84.286012
-84.287244,33.878966,750,905711,47216,SHALLOWFORD RD NE @ SHALLOWFORD PL,33.878966,-84.287244
-84.288465,33.8765680000001,751,905755,47218,SHALLOWFORD RD NE @ SHALLOWFORD TER,33.876568,-84.288465
-84.2900769999999,33.874017,752,905756,47220,SHALLOWFORD RD NE @ WOODSIDE WAY,33.874017,-84.290077
-84.2903459999999,33.8820270000001,753,905829,47228,BUFORD HWY NE @ BEVERLY HILLS DR,33.882027,-84.290346
-84.2923729999999,33.8783680000001,754,905830,47230,BUFORD HWY NE @ 4770,33.878368,-84.292373
-84.275673,33.874607,755,905886,47246,I-85 ACCESS RD NORTH (N.E. EXPY) @ 3355,33.874607,-84.275673
-84.274582,33.8759180000001,756,905879,47248,I-85 ACCESS RD NORTH (N.E. EXPY) @ WOODCOCK BLVD,33.875918,-84.274582
-84.2834549999999,33.8982150000001,757,907494,47266,SHALLOWFORD RD@NEW PEACHTREE,33.898215,-84.283455
-84.281537,33.900317,758,906004,47267,NEW PEACHTREE RD@ 5935,33.900317,-84.281537
-84.286357,33.889329,759,906073,47268,BUFORD HWY NE @ CHAMBLEE DUNWOODY RD,33.889329,-84.286357
-84.270681,33.8778070000001,760,905185,47292,CHAMBLEE TUCKER RD@PRESIDENTIAL PK,33.877807,-84.270681
-84.265477,33.8801130000001,761,905186,47293,CHAMBLEE TUCKER RD@STANTONDALE DR,33.880113,-84.265477
-84.271047,33.8777450000001,762,905301,47298,CHAMBLEE TUCKER RD@PRESIDENTIAL PKY,33.877745,-84.271047
-84.291324,33.8856250000001,763,905302,47300,CHAMBLEE TUCKER RD @ CUMBERLAND DR,33.885625,-84.291324
-84.265684,33.879869,764,905369,47310,CHAMBLEE TUCKER RD@STANTONDALE DR,33.879869,-84.265684
-84.258842,33.8832840000001,765,905370,47312,CHAMBLEE TUCKER RD@EMBRY CIR,33.883284,-84.258842
-84.28579,33.8899190000001,766,907477,47320,SHALLOWFORD RD @ BUFORD HWY,33.889919,-84.28579
-84.28641,33.8926040000001,767,907478,47322,SHALLOWFORD RD@ 3552,33.892604,-84.28641
-84.2954129999999,33.895366,768,905417,47326,PEACHTREE RD @ INGERSOLL RAND DR,33.895366,-84.295413
-84.288632,33.876157,769,905418,47328,SHALLOWFORD RD NE @ WHISPERING HILLS DR,33.876157,-84.288632
-84.285877,33.881422,770,905419,47330,SHALLOWFORD RD NE @ ORTEGA WAY,33.881422,-84.285877
-84.286928,33.8801110000001,771,905425,47338,SHALLOWFORD RD NE @ BEVERLY HILLS DR,33.880111,-84.286928
-84.28882,33.8848820000001,772,905540,47340,BUFORD HWY @ CHAMBLEE TUCKER RD,33.884882,-84.28882
-84.287856,33.885861,773,905541,47342,CHAMBLEE TUCKER RD @ BUFORD HWY,33.885861,-84.287856
-84.2700629999999,33.8774910000001,774,905542,47344,CHAMBLEE TUCKER RD@MERCER UNIVERSI,33.877491,-84.270063
-84.277388,33.8817990000001,775,905543,47346,CHAMBLEE TUCKER RD @ ASCOT CT,33.881799,-84.277388
-84.277573,33.8817720000001,776,905651,47348,CHAMBLEE TUCKER RD @ ASCOT CT,33.881772,-84.277573
-84.248317,33.8790270000001,777,905652,48002,HENDERSON MILL RD @ ASHWOOD LN,33.879027,-84.248317
-84.2454499999999,33.8819780000001,778,905653,48003,HENDERSON MILL RD @ CHAMBLEE TUCKER RD,33.881978,-84.24545
-84.2512139999999,33.877597,779,905654,48004,HENDERSON MILL RD@SHABROMAT WAY,33.877597,-84.251214
-84.2478419999999,33.8855330000001,780,905544,48008,CHAMBLEE TUCKER RD@NORTHCREST RD,33.885533,-84.247842
-84.247712,33.8854170000001,781,905896,48026,CHAMBLEE TUCKER RD@NORTHCREST RD,33.885417,-84.247712
-84.2557219999999,33.8855970000001,782,905777,48034,CHAMBLEE TUCKER RD@BUCKEYE RD,33.885597,-84.255722
-84.2449149999999,33.883043,783,905778,48040,CHAMBLEE TUCKER RD @ HENDERSON MILL,33.883043,-84.244915
-84.245524,33.882122,784,905779,48042,HENDERSON MILL RD@CHAMBLEE TUCKER,33.882122,-84.245524
-84.24762,33.8796120000001,785,905898,48044,HENDERSON MILL RD@ASHWOOD LN,33.879612,-84.24762
-84.248886,33.8790780000001,786,905899,48046,HENDERSON MILL@3208,33.879078,-84.248886
-84.25128,33.877616,787,905900,48048,HENDERSON MILL RD @ SHABROMAT WAY,33.877616,-84.25128
-84.2512589999999,33.871742,788,905901,48050,HENDERSON MILL RD@EVANS RD,33.871742,-84.251259
-84.2563929999999,33.875057,789,905780,48052,FLOWERS RD S @ MERCER UNIVERSITY DR,33.875057,-84.256393
-84.255883,33.8749920000001,790,905781,48054,FLOWERS RD@MERCER UNIVERSITY DR,33.874992,-84.255883
-84.24382,33.8995550000001,791,905782,48064,PLEASANTDALE RD@4000,33.899555,-84.24382
-84.2428429999999,33.8974440000001,792,905783,48066,PLEASANTDALE RD@3930,33.897444,-84.242843
-84.241478,33.8956260000001,793,906021,48068,PLEASANTDALE RD@3930,33.895626,-84.241478
-84.2395989999999,33.8952370000001,794,905194,48070,PLEASANTDALE RD@3810,33.895237,-84.239599
-84.2375079999999,33.894887,795,905195,48072,PLEASANTDALE RD@3772,33.894887,-84.237508
-84.23687,33.894638,796,905196,48073,PLEASANTDALE RD@3754,33.894638,-84.23687
-84.2354349999999,33.8937230000001,797,905197,48074,PLEASANTDALE RD@3722,33.893723,-84.235435
-84.2196529999999,33.8827360000001,798,906022,48075,TUCKER NORCROSS RD @ BRITT RD,33.882736,-84.219653
-84.2191109999999,33.8809460000001,799,906023,48076,CHAMBLEE TUCKER RD @ TUCKER NORCROSS RD,33.880946,-84.219111
-84.218395,33.878386,800,906024,48078,CHAMBLEE TUCKER RD@GLADNEY DR,33.878386,-84.218395
-84.218084,33.8753780000001,801,906025,48080,CHAMBLEE TUCKER RD@MENLO DR,33.875378,-84.218084
-84.218297,33.8785290000001,802,905198,48081,CHAMBLEE TUCKER RD@GLADNEY DR,33.878529,-84.218297
-84.2180079999999,33.875298,803,905199,48082,CHAMBLEE TUCKER RD@MENLO DR,33.875298,-84.218008
-84.217574,33.8732230000001,804,905200,48084,CHAMBLEE TUCKER RD@WEBB RD,33.873223,-84.217574
-84.243332,33.8999440000001,805,905201,48086,PLEASANTDALE RD @ 4025,33.899944,-84.243332
-84.24244,33.8969220000001,806,906026,48088,PLEASANTDALE RD@4021,33.896922,-84.24244
-84.241439,33.895964,807,906027,48090,PLEASANTDALE RD @ 3845,33.895964,-84.241439
-84.2373229999999,33.894931,808,905320,48094,PLEASANTDALE RD@3772,33.894931,-84.237323
-84.234634,33.8937110000001,809,905321,48096,PLEASANTDALE RD@3722,33.893711,-84.234634
-84.231194,33.8924740000001,810,905322,48098,PLEASANTDALE RD@VALLEY BLUFF WAY,33.892474,-84.231194
-84.230204,33.892232,811,906124,48100,PLEASANTDALE RD@VALLEY BLUFF WAY,33.892232,-84.230204
-84.228843,33.8918370000001,812,906126,48104,PLEASANTDALE RD @ WASHINGTON WAY,33.891837,-84.228843
-84.227701,33.890503,813,905323,48108,PLEASANTDALE RD@PLEASANTDALE PKY,33.890503,-84.227701
-84.227592,33.890476,814,905324,48110,PLEASANTDALE RD@PLEASANTDALE PKY,33.890476,-84.227592
-84.2268099999999,33.8888010000001,815,905325,48112,PLEASANTDALE RD@SPRING HARBOR LN,33.888801,-84.22681
-84.226756,33.8889,816,905326,48114,PLEASANTDALE RD @ SPRING HARBOR LN,33.8889,-84.226756
-84.225364,33.887216,817,906128,48116,PLEASANTDALE RD@PLEASANT SHADE DR,33.887216,-84.225364
-84.225222,33.887171,818,906129,48118,PLEASANTDALE RD@PLEASANT SHADE DR,33.887171,-84.225222
-84.222252,33.8849490000001,819,906130,48120,PLEASANTDALE RD@SHADOW WALK,33.884949,-84.222252
-84.222111,33.8849760000001,820,906131,48122,PLEASANTDALE RD@SHADOW WALK LN,33.884976,-84.222111
-84.2207109999999,33.884396,821,905371,48124,PLEASANTDALE RD @ TUCKER NORCROSS RD,33.884396,-84.220711
-84.22069,33.884104,822,906160,48126,PLEASANTDALE RD @ TUCKER NORCROSS RD,33.884104,-84.22069
-84.2198539999999,33.8825150000001,823,906161,48127,TUCKER NORCROSS RD@BRITT RD,33.882515,-84.219854
-84.231129,33.8925370000001,824,906162,48128,PLEASANTDALE RD @ VALLEY BLUFF WAY,33.892537,-84.231129
-84.25334,33.8752620000001,825,906163,48132,MERCER UNIVERSITY DR @ HENDERSON MILL RD,33.875262,-84.25334
-84.252687,33.8752170000001,826,906185,48134,HENDERSON MILL RD @ MERCER UNIVERSITY DR,33.875217,-84.252687
-84.261132,33.882908,827,906186,48138,CHAMBLEE TUCKER RD @ N EMBRY CIR,33.882908,-84.261132
-84.259645,33.883383,828,906187,48140,CHAMBLEE TUCKER RD@EMBRY CIR,33.883383,-84.259645
-84.268548,33.878314,829,906188,48142,CHAMBLEE TUCKER RD@MERCER UNIVERSI,33.878314,-84.268548
-84.256515,33.8845370000001,830,906164,48144,CHAMBLEE TUCKER RD @ BUCKEYE RD,33.884537,-84.256515
-84.263611,33.870373,831,906165,48146,FLOWERS RD S @ UNIVERSITY CIR W,33.870373,-84.263611
-84.257427,33.8844300000001,832,906167,48150,CHAMBLEE TUCKER RD@BUCKEYE RD,33.88443,-84.257427
-84.2819709999999,33.8832420000001,833,906168,48151,CHAMBLEE TUCKER RD @ STRATFORD ARMS,33.883242,-84.281971
-84.268809,33.8786040000001,834,906189,48152,CHAMBLEE TUCKER RD@MERCER UNIVERSI,33.878604,-84.268809
-84.267008,33.8795230000001,835,906190,48154,CHAMBLEE TUCKER RD@STANTONDALE DR,33.879523,-84.267008
-84.2508789999999,33.8658500000001,836,906191,48160,HENDERSON MILL RD@BOLERO DR,33.86585,-84.250879
-84.250684,33.8855170000001,837,906243,48162,CHAMBLEE TUCKER RD@STONECREST CT,33.885517,-84.250684
-84.253142,33.8755550000001,838,906244,48164,HENDERSON MILL RD@MERCER UNIVERSIT,33.875555,-84.253142
-84.255195,33.88539,839,906245,48170,CHAMBLEE TUCKER RD @ 3365,33.88539,-84.255195
-84.245931,33.8840940000001,840,906223,48190,CHAMBLEE TUCKER RD @ HENDERSON MILL,33.884094,-84.245931
-84.2326859999999,33.8929140000001,841,906246,48192,PLEASANTDALE RD@3637,33.892914,-84.232686
-84.233352,33.8929600000001,842,906247,48194,PLEASANTDALE RD@3637,33.89296,-84.233352
-84.217959,33.8741920000001,843,906248,48196,CHAMBLEE TUCKER RD@FONTANA CT,33.874192,-84.217959
-84.217813,33.8740980000001,844,906249,48198,CHAMBLEE TUCKER RD@FONTANA CT,33.874098,-84.217813
-84.207146,33.856888,845,906225,49002,LAWRENCEVILLE HWY @ OLD NORCROSS RD,33.856888,-84.207146
-84.207416,33.857379,846,906226,49004,LAWRENCEVILLE HWY @ OLD NORCROSS RD,33.857379,-84.207416
-84.203354,33.8589940000001,847,906227,49006,LAWRENCEVILLE HWY @ COFER CIR,33.858994,-84.203354
-84.205246,33.85774,848,906250,49007,LAWRENCEVILLE HWY @ 4375,33.85774,-84.205246
-84.200588,33.8605400000001,849,906098,49008,LAWRENCEVILLE HWY @ N ROYAL ATLANTA DR,33.86054,-84.200588
-84.200077,33.8602000000001,850,905275,49010,N ROYAL ATLANTA DR @ LAWRENCEVILLE HWY,33.8602,-84.200077
-84.199013,33.8593440000001,851,905276,49012,N ROYAL ATLANTA DR @ TUCKERSTONE PKY,33.859344,-84.199013
-84.1969989999999,33.8592800000001,852,905277,49014,N ROYAL ATLANTA DR @ 4667,33.85928,-84.196999
-84.194489,33.8593030000001,853,905278,49016,N ROYAL ATLANTA DR @ 4707,33.859303,-84.194489
-84.198334,33.857063,854,906099,49018,MOUNTAIN INDUSTRIAL BLVD @ TUCKERSTONE PKY,33.857063,-84.198334
-84.195564,33.8573420000001,855,906100,49020,MOUNTAIN INDUSTRIAL BLVD @ 2530,33.857342,-84.195564
-84.192877,33.8575680000001,856,906101,49022,MOUNTAIN INDUSTRIAL BLVD @ 2558,33.857568,-84.192877
-84.188477,33.858906,857,905207,49028,N ROYAL ATLANTA DR @ MOUNTAIN INDUSTRIAL BLVD,33.858906,-84.188477
-84.191254,33.8592870000001,858,905209,49030,N ROYAL ATLANTA DR @ 4823,33.859287,-84.191254
-84.200801,33.844955,859,905400,49032,MOUNTAIN INDUSTRIAL BLVD @ GRANITE DR,33.844955,-84.200801
-84.2008049999999,33.8471030000001,860,905401,49034,MOUNTAIN INDUSTRIAL BLVD @ 2145,33.847103,-84.200805
-84.2014839999999,33.849136,861,905445,49036,HUGH HOWELL RD @ MOUNTAIN IND BLVD,33.849136,-84.201484
-84.203186,33.8491320000001,862,905516,49038,HUGH HOWELL RD @ TUCKER IND RD,33.849132,-84.203186
-84.206461,33.8501910000001,863,905517,49040,HUGH HOWELL RD @ FULLER WAY,33.850191,-84.206461
-84.429273,33.8475480000001,864,905447,50004,NORTHSIDE PKY NW @ 3419,33.847548,-84.429273
-84.4275689999999,33.841736,865,905521,50011,HOWELL MILL RD @ 3193,33.841736,-84.427569
-84.442394,33.866383,866,905752,50020,NORTH ATLANTA HIGH SCHOOL,33.866383,-84.442394
-84.4304769999999,33.850193,867,905682,50021,NORTHSIDE PKY NW @ 3487,33.850193,-84.430477
-84.430214,33.8502120000001,868,905683,50022,NORTHSIDE PKY NW @ 3487,33.850212,-84.430214
-84.429376,33.8473680000001,869,905684,50024,NORTHSIDE PKY NW @ 3330,33.847368,-84.429376
-84.292085,34.070858,870,905753,50028,OLD MILTON PKWY @ HAYNES BRIDGE RD,34.070858,-84.292085
-84.382579,33.855554,871,905927,51002,ROSWELL RD NE @ POWERS FERRY RD NW,33.855554,-84.382579
-84.309588,33.9315740000001,872,905998,51058,PEELER RD@VILLAGE MILL RD,33.931574,-84.309588
-84.381075,33.858301,873,906000,51066,ROSWELL RD NE @ IVY PKWY NE,33.858301,-84.381075
-84.381481,33.8578820000001,874,906001,51068,ROSWELL RD NE @ IVY PKWY NE,33.857882,-84.381481
-84.3816629999999,33.8533170000001,875,905928,51069,PIEDMONT RD NE @ HABERSHAM RD NE,33.853317,-84.381663
-84.372646,33.8463580000001,876,905289,52002,PIEDMONT RD NE @ TOWER PLACE DR,33.846358,-84.372646
-84.37747,33.8499360000001,877,905172,52008,PIEDMONT RD NE @ 3525,33.849936,-84.37747
-84.3789839999999,33.85092,878,905523,52010,PIEDMONT RD NE @ 3565,33.85092,-84.378984
-84.381053,33.852924,879,905524,52012,PIEDMONT RD NE @ HABERSHAM RD NE,33.852924,-84.381053
-84.377089,33.849614,880,905408,52016,PIEDMONT RD NE @ 3500,33.849614,-84.377089
-84.374182,33.8484520000001,881,905409,52020,PIEDMONT RD NE @ CARSON LN NE,33.848452,-84.374182
-84.372831,33.84651,882,905410,52022,PIEDMONT RD NE @ TOWER PLACE DR NE,33.84651,-84.372831
-84.371807,33.8443990000001,883,905526,52025,PIEDMONT RD NE @ PEACHTREE RD NE,33.844399,-84.371807
-84.380416,33.860558,884,905528,52028,ROSWELL RD NE @ SHELDON DR NE,33.860558,-84.380416
-84.380189,33.862831,885,905411,52030,ROSWELL RD NE @ LAND O LAKES DR NE,33.862831,-84.380189
-84.380746,33.8650240000001,886,905412,52032,ROSWELL RD NE @ LAKEMOORE DR NE,33.865024,-84.380746
-84.381031,33.8675480000001,887,905413,52034,ROSWELL RD NE @ CHASTAIN DR NE,33.867548,-84.381031
-84.3809889999999,33.870188,888,905529,52038,ROSWELL RD NE @ RICKENBACKER DR NE,33.870188,-84.380989
-84.379376,33.8511520000001,889,905760,52058,PIEDMONT RD NE @ 3558,33.851152,-84.379376
-84.381109,33.8703580000001,890,905644,52064,ROSWELL RD NE @ RICKENBACKER DR NE,33.870358,-84.381109
-84.380558,33.8603340000001,891,905645,52066,ROSWELL RD NE @ LE BRUN RD,33.860334,-84.380558
-84.3804499999999,33.8611670000001,892,905646,52068,ROSWELL RD NE @ LE BRUN RD NE,33.861167,-84.38045
-84.380276,33.862509,893,905647,52070,ROSWELL RD NE @ LAUREL FOREST CIR,33.862509,-84.380276
-84.380757,33.864746,894,905762,52072,ROSWELL RD NE @ LAKEMOORE DR,33.864746,-84.380757
-84.381151,33.86753,895,905763,52074,ROSWELL RD NE @ CHASTAIN DR NE,33.86753,-84.381151
-84.362045,33.850174,896,905764,52076,PEACHTREE RD NE@LENOX RD NE,33.850174,-84.362045
-84.362343,33.850395,897,905765,52078,PEACHTREE RD NE @ LENOX RD,33.850395,-84.362343
-84.3639439999999,33.849046,898,905648,52080,PEACHTREE RD NE @ LENOX PKWY,33.849046,-84.363944
-84.3636549999999,33.8493730000001,899,905882,52082,PEACHTREE RD NE @ 3414,33.849373,-84.363655
-84.366417,33.848801,900,905887,52084,PEACHTREE RD NE@STRATFORD RD NE,33.848801,-84.366417
-84.3663099999999,33.848236,901,905888,52086,PEACHTREE RD NE@STRATFORD RD NE,33.848236,-84.36631
-84.367296,33.847874,902,905889,52088,BUCKHEAD STATION - SOUTHBOUND,33.847874,-84.367296
-84.367542,33.8473660000001,903,905890,52090,BUCKHEAD STATION - NORTHBOUND,33.847366,-84.367542
-84.368791,33.8456410000001,904,906006,52092,PEACHTREE RD @ HIGHLAND DR,33.845641,-84.368791
-84.3714449999999,33.8434560000001,905,905891,52098,PEACHTREE RD @ PIEDMONT RD,33.843456,-84.371445
-84.3608829999999,33.851634,906,905182,52150,PEACHTREE RD NE @ OAK VALLEY RD NE,33.851634,-84.360883
-84.357705,33.8539440000001,907,905188,52154,PEACHTREE RD@ROXBORO RD NE,33.853944,-84.357705
-84.355561,33.8541680000001,908,905189,52156,PEACHTREE RD@3669,33.854168,-84.355561
-84.353721,33.854786,909,905190,52158,PEACHTREE RD NE@CANTRELL RD NE,33.854786,-84.353721
-84.3515659999999,33.85553,910,905303,52160,PEACHTREE RD NE@KINGSBORO RD NE,33.85553,-84.351566
-84.3490409999999,33.8570780000001,911,905304,52162,PEACHTREE RD NE@CLUB DR NE,33.857078,-84.349041
-84.347235,33.857741,912,905305,52164,PEACHTREE RD@CLUB DR,33.857741,-84.347235
-84.347169,33.8578130000001,913,905306,52166,PEACHTREE RD@BELLAIRE DR,33.857813,-84.347169
-84.3487039999999,33.8573740000001,914,905236,52168,PEACHTREE RD@CLUB DR,33.857374,-84.348704
-84.352176,33.8554130000001,915,905237,52170,PEACHTREE RD@VERMONT RD,33.855413,-84.352176
-84.354211,33.8546880000001,916,905238,52172,PEACHTREE RD@NARMORE DR,33.854688,-84.354211
-84.356283,33.854138,917,905426,52174,PEACHTREE RD@3660,33.854138,-84.356283
-84.3601,33.853326,918,905421,52178,PEACHTREE RD @ WIEUCA RD,33.853326,-84.3601
-84.372473,33.843217,919,905422,52182,PEACHTREE RD NE @ MAPLE DR NE,33.843217,-84.372473
-84.3580929999999,33.84358,920,905428,52220,LENOX RD NE @ FERNCLIFF RD NE,33.84358,-84.358093
-84.3718289999999,33.8446670000001,921,905429,52222,PIEDMONT RD NE @ PEACHTREE RD NE,33.844667,-84.371829
-84.357725,33.854163,922,905478,52234,PEACHTREE RD @ PEACHTREE DUNWOODY RD,33.854163,-84.357725
-84.358006,33.845245,923,905666,52500,LENOX STATION,33.845245,-84.358006
-84.3320399999999,33.8495800000001,924,905662,53002,BRIARWOOD RD@1433,33.84958,-84.33204
-84.342788,33.836602,925,905712,53010,N DRUID HILLS RD @ CHILDERS RD,33.836602,-84.342788
-84.340091,33.843467,926,905714,53014,N DRUID HILLS RD NE @ CURTIS DR,33.843467,-84.340091
-84.3407549999999,33.843199,927,905715,53016,N DRUID HILLS RD NE @ CURTIS DR,33.843199,-84.340755
-84.339264,33.845069,928,905784,53020,N DRUID HILLS RD NE @ LENOX PARK BLVD,33.845069,-84.339264
-84.3391339999999,33.8468330000001,929,905832,53022,N DRUID HILLS RD NE @ BROOKSHIRE LN,33.846833,-84.339134
-84.342148,33.841534,930,905833,53024,N DRUID HILLS RD @ DRUID KNOLL DR,33.841534,-84.342148
-84.342496,33.8405310000001,931,905903,53025,N DRUID HILLS RD @ GAIL DR,33.840531,-84.342496
-84.3420819999999,33.8418740000001,932,905904,53026,N DRUID HILLS RD NE @ WRIGHT AVE,33.841874,-84.342082
-84.342876,33.8398330000001,933,905905,53028,N DRUID HILLS RD NE @ GOODWIN RD,33.839833,-84.342876
-84.339952,33.8566950000001,934,905957,53030,N DRUID HILLS RD NE @ SYLVAN CIR NE (N),33.856695,-84.339952
-84.340072,33.8567580000001,935,905958,53031,N DRUID HILLS RD NE @ STANDARD DR,33.856758,-84.340072
-84.3394069999999,33.8547080000001,936,905959,53034,N DRUID HILLS RD NE @ THORNWELL DR,33.854708,-84.339407
-84.339331,33.854861,937,905960,53036,N DRUID HILLS RD NE @ SYLVAN CIR NE (S),33.854861,-84.339331
-84.3391349999999,33.852471,938,905906,53038,N DRUID HILLS RD NE @ PINE GROVE AVE,33.852471,-84.339135
-84.338938,33.8508330000001,939,905908,53042,N DRUID HILLS RD NE @ COLONIAL DR,33.850833,-84.338938
-84.3391349999999,33.8531790000001,940,905956,53044,N DRUID HILLS RD NE @ BRIARWOOD RD,33.853179,-84.339135
-84.33931,33.846909,941,905961,53045,N DRUID HILLS RD NE @ BROOKSHIRE LN,33.846909,-84.33931
-84.3342249999999,33.851057,942,905962,53052,BRIARWOOD RD@BRIARWOOD HILLS,33.851057,-84.334225
-84.33377,33.8508400000001,943,905963,53054,BRIARWOOD RD@COOSAWATTEE DR,33.85084,-84.33377
-84.337101,33.865216,944,906074,53058,PEACHTREE RD NE@OSBORNE RD NE,33.865216,-84.337101
-84.327324,33.844122,945,905257,53076,BUFORD HWY NE @ BRIARWOOD RD,33.844122,-84.327324
-84.3272479999999,33.8442920000001,946,905258,53078,BUFORD HWY NE @ BRIARWOOD RD,33.844292,-84.327248
-84.3263449999999,33.8441570000001,947,905259,53079,BRIARWOOD RD NE @ BUFORD HWY NE,33.844157,-84.326345
-84.325659,33.8457330000001,948,905252,53082,BUFORD HWY NE @ KNOLL PL NE,33.845733,-84.325659
-84.323722,33.847335,949,905253,53084,BUFORD HWY NE @ AFTON LN,33.847335,-84.323722
-84.323402,33.847944,950,905255,53088,BUFORD HWY NE @ AFTON LN NE,33.847944,-84.323402
-84.321479,33.849384,951,905260,53090,BUFORD HWY NE @ 3557,33.849384,-84.321479
-84.321512,33.8494650000001,952,905261,53092,BUFORD HWY NE @ 3580,33.849465,-84.321512
-84.320445,33.8503150000001,953,905372,53094,BUFORD HWY NE@3567,33.850315,-84.320445
-84.320467,33.850404,954,905373,53096,BUFORD HWY NE@3610,33.850404,-84.320467
-84.319489,33.851078,955,905374,53098,BUFORD HWY NE@3649,33.851078,-84.319489
-84.319444,33.8513170000001,956,906132,53100,BUFORD HWY NE@3658,33.851317,-84.319444
-84.317955,33.8522800000001,957,906133,53102,BUFORD HWY NE@3691,33.85228,-84.317955
-84.3181049999999,33.852543,958,906134,53104,BUFORD HWY NE@3700,33.852543,-84.318105
-84.3159929999999,33.8544140000001,959,906140,53108,BUFORD HWY NE@DREW VALLEY RD,33.854414,-84.315993
-84.316017,33.8539430000001,960,906141,53110,BUFORD HWY NE @ DREW VALLEY RD,33.853943,-84.316017
-84.3147739999999,33.8550030000001,961,906142,53112,BUFORD HWY NE @ 3799,33.855003,-84.314774
-84.315057,33.8552550000001,962,906143,53114,BUFORD HWY NE@3814,33.855255,-84.315057
-84.313848,33.8563380000001,963,906136,53116,BUFORD HWY NE@CLAIRMONT TER,33.856338,-84.313848
-84.31379,33.8558800000001,964,906137,53118,BUFORD HWY NE@CLAIRMONT TER,33.85588,-84.31379
-84.312285,33.8575890000001,965,906138,53120,BUFORD HWY NE@CLAIRMONT RD,33.857589,-84.312285
-84.3118229999999,33.858235,966,906139,53122,BUFORD HWY NE @ CLAIRMONT RD NE,33.858235,-84.311823
-84.3101569999999,33.859496,967,906192,53126,BUFORD HWY NE@DERING CIR,33.859496,-84.310157
-84.3075699999999,33.861832,968,906169,53128,BUFORD HWY NE @ 4075,33.861832,-84.30757
-84.309286,33.8604990000001,969,906171,53130,BUFORD HWY NE @ DERING CIR,33.860499,-84.309286
-84.314469,33.8428180000001,970,906195,53134,CLAIRMONT RD NE @ BARONE AVE NE,33.842818,-84.314469
-84.3154019999999,33.845695,971,906196,53136,CLAIRMONT RD NE @ CLAIRMONT WAY,33.845695,-84.315402
-84.3155179999999,33.8502700000001,972,906202,53140,CLAIRMONT RD NE @ WILMONT DR,33.85027,-84.315518
-84.314717,33.852493,973,906203,53142,CLAIRMONT RD NE @ CLAIRMONT NORTH NE,33.852493,-84.314717
-84.3132179999999,33.854658,974,906204,53144,CLAIRMONT RD NE @ TANGLEWOOD CIR,33.854658,-84.313218
-84.312506,33.855829,975,906197,53146,CLAIRMONT RD NE @ CLAIRMONT TER,33.855829,-84.312506
-84.311933,33.858531,976,906198,53148,CLAIRMONT RD NE @ BUFORD HWY,33.858531,-84.311933
-84.345308,33.8575270000001,977,906231,53172,PEACHTREE RD NE@BROOKHAVEN DR NE,33.857527,-84.345308
-84.3434139999999,33.8575090000001,978,906254,53174,PEACHTREE RD NE @ COLONIAL DR NE,33.857509,-84.343414
-84.341852,33.858074,979,906255,53175,PEACHTREE RD @ N DRUID HILLS RD,33.858074,-84.341852
-84.340388,33.8591740000001,980,906256,53176,PEACHTREE RD NE @ N DRUID HILLS RD,33.859174,-84.340388
-84.33705,33.86506,981,906257,53182,PEACHTREE RD NE @ OSBORNE RD NE,33.86506,-84.33705
-84.334007,33.86945,982,906262,53186,PEACHTREE RD NE @ TOWN BLVD,33.86945,-84.334007
-84.334892,33.8684470000001,983,906263,53188,PEACHTREE RD@CROSS KEYS DR,33.868447,-84.334892
-84.3439749999999,33.8576190000001,984,906264,53196,PEACHTREE RD @ BROOKHAVEN DR,33.857619,-84.343975
-84.214747,33.8558200000001,985,905210,53235,LAVISTA RD @ MAIN ST,33.85582,-84.214747
-84.315439,33.848104,986,905327,53252,CLAIRMONT RD @ CENTURY PL,33.848104,-84.315439
-84.315395,33.850395,987,905328,53254,CLAIRMONT RD@MCJENKIN DR,33.850395,-84.315395
-84.314611,33.852337,988,905329,53256,CLAIRMONT RD@CLAIRMONT NORTH  NE,33.852337,-84.314611
-84.3130649999999,33.854682,989,905211,53258,CLAIRMONT RD@TANGLEWOOD CIR,33.854682,-84.313065
-84.312303,33.855935,990,905212,53260,CLAIRMONT RD@CLAIRMONT TER,33.855935,-84.312303
-84.311785,33.857852,991,905213,53262,CLAIRMONT RD @ BUFORD HWY,33.857852,-84.311785
-84.339166,33.8448010000001,992,905331,53267,N DRUID HILLS RD NE @ N CLIFF VALLEY WAY,33.844801,-84.339166
-84.3275599999999,33.84538,993,905457,53306,BRIARWOOD RD @ (OPPOSITE) 1599,33.84538,-84.32756
-84.3283,33.8470100000001,994,905573,53308,BRIARWOOD RD@KEYS CROSSING,33.84701,-84.3283
-84.32928,33.84797,995,905574,53310,BRIARWOOD RD@PINE CONE LN,33.84797,-84.32928
-84.330568,33.8489720000001,996,905575,53312,BRIARWOOD RD@BRIARWOOD WAY,33.848972,-84.330568
-84.335989,33.852471,997,905804,53320,BRIARWOOD RD@ 1322,33.852471,-84.335989
-84.335227,33.851746,998,905805,53326,BRIARWOOD RD NE @ LIMEHURST DR,33.851746,-84.335227
-84.332016,33.8494200000001,999,905806,53328,BRIARWOOD RD NE @ YANCY LN NE,33.84942,-84.332016
-84.330546,33.848892,1000,905690,53330,BRIARWOOD RD NE @ BRIARWOOD WAY,33.848892,-84.330546
-84.329403,33.847943,1001,905691,53332,BRIARWOOD RD NE @ PINE CONE LN NE,33.847943,-84.329403
-84.3285109999999,33.847111,1002,905692,53334,BRIARWOOD RD NE @ KEYS CROSSING,33.847111,-84.328511
-84.3276069999999,33.845196,1003,905693,53336,BRIARWOOD RD NE @ 3446,33.845196,-84.327607
-84.325681,33.8455540000001,1004,905696,53386,BUFORD HWY NE @ KNOLL PL,33.845554,-84.325681
-84.3388409999999,33.8507880000001,1005,906055,53516,N DRUID HILLS RD NE @ COLONIAL DR,33.850788,-84.338841
-84.3387759999999,33.853169,1006,906056,53518,BRIARWOOD RD NE @ N DRUID HILLS RD,33.853169,-84.338776
-84.315577,33.847153,1007,905940,53520,CLAIRMONT RD NE @ CENTURY PL,33.847153,-84.315577
-84.339147,33.8602500000001,1008,905697,53900,BROOKHAVEN/OGLETHORPE STATION,33.86025,-84.339147
-84.303986,33.8648220000001,1009,905820,54024,BUFORD HWY NE @ OAK SHADOW CT NE,33.864822,-84.303986
-84.303093,33.8656540000001,1010,905173,54026,BUFORD HWY NE@PLASTER RD,33.865654,-84.303093
-84.2837269999999,33.858389,1011,905292,54046,SHALLOWFORD RD NE @ FLAIR KNOLL DR NE,33.858389,-84.283727
-84.2837269999999,33.8582280000001,1012,905293,54048,SHALLOWFORD RD NE @ FLAIR KNOLL DR NE,33.858228,-84.283727
-84.2818119999999,33.855739,1013,906013,54082,SHALLOWFORD RD NE @ MELINDA DR NE,33.855739,-84.281812
-84.286175,33.861048,1014,906014,54084,SHALLOWFORD RD NE @ LAKE FLAIR CIR NE,33.861048,-84.286175
-84.287295,33.8628560000001,1015,906060,54086,SHALLOWFORD RD NE @ BRIARLAKE CT NE,33.862856,-84.287295
-84.289645,33.8658370000001,1016,906061,54088,SHALLOWFORD RD NE @ FRONTIER TRL,33.865837,-84.289645
-84.290264,33.869919,1017,905946,54092,SHALLOWFORD RD NE @ DRESDEN DR NE,33.869919,-84.290264
-84.29047,33.8714580000001,1018,905947,54094,SHALLOWFORD RD NE @ 2868,33.871458,-84.29047
-84.290319,33.86965,1019,905948,54096,SHALLOWFORD RD NE @ DRESDEN DR NE,33.86965,-84.290319
-84.2897859999999,33.8669110000001,1020,905949,54098,SHALLOWFORD RD NE @ 2728,33.866911,-84.289786
-84.289863,33.8659000000001,1021,906062,54100,SHALLOWFORD RD NE @ FRONTIER TRL,33.8659,-84.289863
-84.2873059999999,33.8626860000001,1022,905530,54102,SHALLOWFORD RD NE @ BRIARLAKE CT NE,33.862686,-84.287306
-84.299769,33.86891,1023,905535,54120,BUFORD HWY NE @ BRAGG ST,33.86891,-84.299769
-84.304073,33.8652480000001,1024,905463,54124,BUFORD HWY NE @ PLASTER RD,33.865248,-84.304073
-84.306967,33.8625210000001,1025,905465,54128,BUFORD HWY NE @ OAK SHADOW DR NE,33.862521,-84.306967
-84.304855,33.8477520000001,1026,905466,54132,I-85 ACCESS RD@CENTURY BLVD NE,33.847752,-84.304855
-84.30585,33.8462510000001,1027,905239,54134,I-85 ACCESS RD@CENTURY BLVD,33.846251,-84.30585
-84.306496,33.845127,1028,905307,54136,I-85 ACCESS RD@CENTURY BLVD NE,33.845127,-84.306496
-84.285998,33.8664000000001,1029,905308,54138,I-85 ACCESS RD NORTH (N.E. EXPY) @ 3001,33.8664,-84.285998
-84.283438,33.86861,1030,905309,54140,I-85 ACCESS RD NORTH (N.E. EXPY) @ COLONIAL WAY,33.86861,-84.283438
-84.280792,33.8703190000001,1031,905310,54142,I-85 ACCESS RD NORTH (N.E. EXPY) @ 3185,33.870319,-84.280792
-84.310691,33.859944,1032,905243,54148,CLAIRMONT RD @ SKYLAND RD,33.859944,-84.310691
-84.30968,33.8615500000001,1033,905357,54150,CLAIRMONT RD@RAVEN HILL DR,33.86155,-84.30968
-84.30938,33.86312,1034,905358,54152,CLAIRMONT RD@CANMONT DR,33.86312,-84.30938
-84.30931,33.8652000000001,1035,905359,54154,CLAIRMONT RD @ DRESDEN DR,33.8652,-84.30931
-84.3093719999999,33.867558,1036,905360,54156,CLAIRMONT RD@BRAGG ST,33.867558,-84.309372
-84.3093489999999,33.868889,1037,905244,54158,CLAIRMONT RD@YOUNG RD,33.868889,-84.309349
-84.30954,33.8691180000001,1038,905245,54160,CLAIRMONT RD NE @ YOUNG RD,33.869118,-84.30954
-84.309562,33.8680200000001,1039,905246,54162,CLAIRMONT RD NE @ BRAGG ST,33.86802,-84.309562
-84.309585,33.8655610000001,1040,900398,54164,CLAIRMONT RD NE @ DRESDEN DR,33.865561,-84.309585
-84.309558,33.8632870000001,1041,900422,54166,CLAIRMONT RD NE @ CANMONT DR,33.863287,-84.309558
-84.30993,33.861228,1042,900423,54168,CLAIRMONT RD NE @ RAVEN HILL,33.861228,-84.30993
-84.310685,33.8601840000001,1043,900424,54170,CLAIRMONT RD NE @ SKYLAND RD,33.860184,-84.310685
-84.30304,33.8487850000001,1044,900425,54172,NORTHEAST EXPY@2501,33.848785,-84.30304
-84.2983369999999,33.8531580000001,1045,900399,54174,NORTHEAST EXPY @ 2515 (ENTRANCE),33.853158,-84.298337
-84.294799,33.856119,1046,900400,54176,NORTHEAST EXPY @ PEACHWOOD CIR S,33.856119,-84.294799
-84.293688,33.857721,1047,900401,54178,NORTHEAST EXPY @ PEACHWOOD CIR N,33.857721,-84.293688
-84.290855,33.862088,1048,900402,54180,NORTHEAST EXPY @ 2805,33.862088,-84.290855
-84.290039,33.8628390000001,1049,900426,54182,NORTHEAST EXPY @ 2825,33.862839,-84.290039
-84.292091,33.862217,1050,900427,54184,I-85 ACCESS RD SOUTH (N.E. EXPY) @PLASTER RD,33.862217,-84.292091
-84.293436,33.859896,1051,900428,54186,I-85 ACCESS RD SOUTH (N.E. EXPY) @2772,33.859896,-84.293436
-84.294504,33.8579720000001,1052,900429,54188,I-85 ACCESS RD SOUTH (N.E. EXPY) @ 2700,33.857972,-84.294504
-84.2961349999999,33.856091,1053,900403,54190,I-85 ACCESS RD SOUTH (N.E. EXPY) @ 2628,33.856091,-84.296135
-84.298416,33.8541980000001,1054,900404,54192,I-85 ACCESS RD SOUTH (N.E. EXPY) @ 2550,33.854198,-84.298416
-84.283318,33.869693,1055,900431,54200,I-85 ACCESS RD SOUTH (N.E. EXPY) @ 3070,33.869693,-84.283318
-84.277862,33.872286,1056,900432,54204,I-85 ACCESS RD NORTH (N.E. EXPY) @ 3265,33.872286,-84.277862
-84.3002049999999,33.8683730000001,1057,900407,54208,BUFORD HWY@BRAGG ST,33.868373,-84.300205
-84.2863819999999,33.8611560000001,1058,900437,54228,SHALLOWFORD RD NE @ LAKE FLAIR CIR NE (N),33.861156,-84.286382
-84.280648,33.855444,1059,900410,54230,BRIARCLIFF RD @ SHALLOWFORD RD,33.855444,-84.280648
-84.309497,33.8416770000001,1060,900411,54232,I-85 ACCESS @CENTURY BLVD,33.841677,-84.309497
-84.29031,33.8714140000001,1061,900439,54242,SHALLOWFORD RD NE @ 2865,33.871414,-84.29031
-84.3093009999999,33.870957,1062,900416,54510,CLAIRMONT RD @ W HARDEE AVE,33.870957,-84.309301
-84.3084679999999,33.8716220000001,1063,900417,54511,NORTH DEKALB HEALTH CENTER,33.871622,-84.308468
-84.3095499999999,33.871067,1064,900442,54512,CLAIRMONT RD NE @ GEORGIAN DR E,33.871067,-84.30955
-84.289679,33.8670450000001,1065,900443,54514,SHALLOWFORD RD NE @ 2739,33.867045,-84.289679
-84.296475,33.8546670000001,1066,900444,54516,NORTHEAST EXPY @ 2515 (EXIT),33.854667,-84.296475
-84.259259,33.8536520000001,1067,900448,55006,HENDERSON MILL RD NE@MILL RIDGE TRL,33.853652,-84.259259
-84.253036,33.8593900000001,1068,900449,55010,HENDERSON MILL RD NE@MIDVALE RD,33.85939,-84.253036
-84.250397,33.867443,1069,900252,55012,HENDERSON MILL RD@HENDERSON RD,33.867443,-84.250397
-84.250548,33.871627,1070,900253,55014,HENDERSON MILL RD@EVANS RD,33.871627,-84.250548
-84.250961,33.8678130000001,1071,900254,55016,HENDERSON MILL RD@HENDERSON RD,33.867813,-84.250961
-84.251472,33.8659440000001,1072,900255,55018,HENDERSON MILL RD @ BOLERO DR,33.865944,-84.251472
-84.251685,33.8632870000001,1073,900279,55020,HENDERSON MILL RD@HENDERSON CREEK,33.863287,-84.251685
-84.251968,33.8612670000001,1074,900280,55022,HENDERSON MILL RD@MIDVALE RD,33.861267,-84.251968
-84.25325,33.8596230000001,1075,900281,55024,HENDERSON MILL RD@LESLIE DR,33.859623,-84.25325
-84.254902,33.8578650000001,1076,900282,55026,HENDERSON MILL RD@LESLIE DR,33.857865,-84.254902
-84.257058,33.856542,1077,900256,55028,HENDERSON MILL RD@KINGS ARMS DR,33.856542,-84.257058
-84.2590949999999,33.8551380000001,1078,900257,55030,HENDERSON MILL RD@BRIARCLIFF WAY,33.855138,-84.259095
-84.258652,33.8509760000001,1079,900259,55034,HENDERSON MILL RD @ FIELDING DR,33.850976,-84.258652
-84.271091,33.8548220000001,1080,900284,55038,BRIARCLIFF RD@HAWTHORNE DR,33.854822,-84.271091
-84.2567,33.843421,1081,900285,55040,MONTREAL RD @ LAVISTA RD,33.843421,-84.2567
-84.244538,33.847342,1082,900260,55048,NORTHLAKE PKWY @ LAVISTA RD,33.847342,-84.244538
