Facility ID,Name,Address,City,County,State,Zip Code,Latitude,Longitude,Coordinate Source,Address Match Type,Open USTs,Closed USTs,Temporarily Out of Service USTs,Facility Status,Land Use,Estimated Population within 1500ft,Estimated Private Domestic Wells wihtin 1500ft,Within Source Water Protection Area (SPA),SPA Public Water System and Facility ID,SPA Water Type,SPA Facility Type,SPA HUC12,Within Groundwater Wellhead Protection Area (WHPA),WHPA Public Water System and Facility ID,WHPA Water Type,WHPA Facility Type,WHPA HUC12,Within 100-year Floodplain,Date_of_Last_Inspection,EPA Region,Tribe,x,y
GA10000922,FAUSETT OIL CO INC,405 OLD QUITMAN HWY,ADEL,,Georgia,31620,31.11648181,-83.42256031,Geocode,StreetAddress,4,0,0,Open UST(s),"Developed, Medium Intensity",44,1,No,,,,,Yes,GA0750000_5528,GW,WL,031102040501,No,,4,,-83.42256031,31.11648181000004
GA4130021,CONTAINER CORP OF AMERICA,STATE ROAD 121,HOBOKEN,,Georgia,31542,31.11707566,-82.12940825,Geocode,StreetName,0,2,0,Closed UST(s),,,,,,,,,,,,,,,,4,,-82.12940825,31.11707566000007
GA9013018,BUIE'S BP,HWY 121 SOUTH,HOBOKEN,,Georgia,31542,31.11707566,-82.12940825,Geocode,StreetName,0,3,0,Closed UST(s),,,,,,,,,,,,,,,,4,,-82.12940825,31.11707566000007
GA9101050,HC WIGGINS INC,559 BARROW AVENUE,PELHAM,,Georgia,31779,31.11715253,-84.1611115,Geocode,PointAddress,0,2,0,Closed UST(s),"Developed, Low Intensity",290,39,No,,,,,No,,,,,No,,4,,-84.1611115,31.117152530000055
GA10001755,SM101W (WWTP WELL SOUTH MAINLAND),US HWY 17 SOUTH TREATMENT PLANT,BRUNSWICK,,Georgia,31523,31.11815482,-81.5402208,Geocode,StreetName,0,1,0,Closed UST(s),,,,,,,,,,,,,,,,4,,-81.5402208,31.11815482000003
GA1010035,GA DOT #10478,GRADY & OAK ST,PELHAM,,Georgia,31779,31.118544,-84.1562415,Geocode,StreetInt,0,1,0,Closed UST(s),"Developed, Open Space",423,30,No,,,,,Yes,GA2050003_8243,GW,WL,031200020503,No,,4,,-84.1562415,31.118544000000043
GA9000368,GA POWER/PELHAM LINE CREW HQ,305 COTTON AVE SE,PELHAM,,Georgia,31779,31.11954523,-84.1446941,Geocode,StreetAddress,0,3,0,Closed UST(s),"Developed, Open Space",208,34,No,,,,,Yes,GA2050003_8244,GW,WL,031200020404,No,,4,,-84.1446941,31.11954523000003
GA9136002,OLD BULK PLANT PROPERTY,JACKSON ST,THOMASVILLE,,Georgia,31792,30.83235992,-83.98408,Geocode,POI,0,1,0,Closed UST(s),,,,,,,,,,,,,,,,4,,-83.98408,30.832359920000044
GA9000450,SNAPPY FOODS (WOODBINE),608 BEDELL AVE,WOODBINE,,Georgia,31569,30.96500293,-81.72314468,Geocode,StreetAddress,2,0,0,Open UST(s),"Developed, Open Space",418,72,No,,,,,Yes,GA0390002_4677,GW,WL,030702011202,No,,4,,-81.72314468,30.965002930000026
GA202001,RHONE-POULENC AG CO,PO BOX 428,WOODBINE,,Georgia,31569,30.9654497,-81.7201995,Geocode,Postal,0,4,0,Closed UST(s),,,,,,,,,,,,,,,,4,,-81.7201995,30.96544970000008
GA4200012,GA FC/CAMDEN CO UNIT,4350 HWY 17/S 3MI S OF WOODBINE,WOODBINE,,Georgia,31569,30.9654497,-81.7201995,Geocode,Postal,0,2,0,Closed UST(s),,,,,,,,,,,,,,,,4,,-81.7201995,30.96544970000008
GA4200015,GA DOT 10548/CAMDEN CO MAINT HQ,5676 BIDELLS ROAD,WOODBINE,,Georgia,31569,30.9654497,-81.7201995,Geocode,Postal,0,1,0,Closed UST(s),,,,,,,,,,,,,,,,4,,-81.7201995,30.96544970000008
GA4200032,F B BUCHANAN GEN MERCHANDISE,RFD 1 BOX 65,WOODBINE,,Georgia,31569,30.9654497,-81.7201995,Geocode,Postal,0,3,0,Closed UST(s),,,,,,,,,,,,,,,,4,,-81.7201995,30.96544970000008
GA9020086,WOODBINE LAUNDRY MAT,313 VEDELL AVE,WOODBINE,,Georgia,31569,30.96801353,-81.72352934,Geocode,PointAddress,0,2,0,Closed UST(s),"Developed, Medium Intensity",367,61,No,,,,,No,,,,,No,,4,,-81.72352934,30.968013530000064
GA9020115,CAMDEN COUNTY BD OF COMMISSIONER,209 E 4TH STREET,WOODBINE,,Georgia,31569,30.96802814,-81.72158199,Geocode,StreetAddress,2,0,0,Open UST(s),"Developed, Low Intensity",411,87,No,,,,,No,,,,,No,,4,,-81.72158199,30.968028140000058
GA4430104,SELLERS OIL COMPANY INC/UPPER SY,INDUSTRIAL AIR PARK/US HWY 27,BAINBRIDGE,,Georgia,39817,30.96816,-84.61201,Geocode,POI,0,7,0,Closed UST(s),,,,,,,,,,,,,,,,4,,-84.61201,30.96816000000007
GA9092205,#911 (GAS & GO #5 ),5815 BEMISS RD,VALDOSTA,,Georgia,31602,30.9688063,-83.21653796,Geocode,PointAddress,0,6,0,Closed UST(s),"Developed, Low Intensity",25,6,No,,,,,Yes,GA1850317_15932,GW,WL,031102020902,No,,4,,-83.21653796,30.96880630000004
GA4200031,CLARKS PARTS & SVC,US HWY 17 & THIRD ST,WOODBINE,,Georgia,31569,30.969072,-81.7239015,Geocode,StreetInt,0,5,0,Closed UST(s),"Developed, Low Intensity",334,46,No,,,,,No,,,,,No,,4,,-81.7239015,30.96907200000004
GA9092060,#936 A&M FOOD MART,5859 BEMISS RD,VALDOSTA,,Georgia,31605,30.97085411,-83.21527809,Geocode,PointAddress,3,0,0,Open UST(s),"Developed, Medium Intensity",72,17,No,,,,,Yes,GA1850317_15932,GW,WL,031102020902,No,,4,,-83.21527809,30.97085411000006
GA1362001,HURST FARMS,2777 GA HWY 3,OCHLOCHNEE,,Georgia,31773,30.97163978,-84.05158799,Geocode,StreetAddress,1,5,0,Open UST(s),"Developed, Low Intensity",299,73,No,,,,,Yes,GA2750003_9350,GW,WL,031200020602,No,,4,,-84.05158799,30.971639780000032
GA4430114,BRINSON CORNER STORE,101 OLD BAINBRIDGE RD,BRINSON,,Georgia,39825,30.97299358,-84.73334817,Geocode,StreetAddress,1,0,1,Open UST(s),"Developed, Open Space",37,13,No,,,,,Yes,GA0870002_23548,GW,WL,031300100801,No,,4,,-84.73334817,30.972993580000036
GA1360124,LEON HURST,CHURCH ST PO BOX 174,OCHLOCKNEE,,Georgia,31773,30.97345959,-84.05733696,Geocode,StreetName,0,1,0,Closed UST(s),,,,,,,,,,,,,,,,4,,-84.05733696,30.97345959000006
GA9136033,R & T AUTOMOTIVE,1005 MAIN ST NORTH,OCHLOCKNEE,,Georgia,31773,30.97410565,-84.05387013,Geocode,PointAddress,0,3,0,Closed UST(s),"Developed, Medium Intensity",279,74,No,,,,,No,,,,,No,,4,,-84.05387013,30.97410565000007
GA650060,NOLES GROCERY,RT 1/POPES MUSIUM,OCHLOCKNEE,,Georgia,31773,30.9749749,-84.0545976,Geocode,Postal,0,2,0,Closed UST(s),,,,,,,,,,,,,,,,4,,-84.0545976,30.974974900000063
GA1360061,GA DOT #10474,TURNER ST,OCHLOCKNEE,,Georgia,31773,30.9749749,-84.0545976,Geocode,Postal,0,2,0,Closed UST(s),,,,,,,,,,,,,,,,4,,-84.0545976,30.974974900000063
GA9125011,BARFIELDS BAIT & TACKLE,6032 HWY 39 S,DONALSONVILLE,,Georgia,39845,30.9756723,-84.88182982,Geocode,StreetAddress,2,0,0,Open UST(s),"Developed, Open Space",41,15,No,,,,,Yes,GA2750001_17743,GW,WL,031300100702,No,,4,,-84.88182982,30.975672300000042
GA1360151,SUSIE Q'S #5,26099 HWY 19 S,OCHLOCKNEE,,Georgia,31773,30.9767599,-84.03704114,Geocode,PointAddress,3,0,1,Open UST(s),"Developed, Medium Intensity",9,3,No,,,,,No,,,,,No,,4,,-84.03704114,30.976759900000047
GA9043035,J & J GREENE FARMS,BRINSON AIRBASE RD/SCOTT RD,BRINSON,,Georgia,39825,30.976974,-84.700881,Geocode,StreetInt,0,1,0,Closed UST(s),"Developed, Open Space",4,2,No,,,,,Yes,GA0870002_23548,GW,WL,031300100801,No,,4,,-84.700881,30.97697400000004
GA9043669,TEXPAR ENERGY INC,268 INDUSTRIAL BLVD,BAINBRIDGE,,Georgia,39818,30.97738957,-84.62800129,Geocode,StreetAddress,0,4,0,Closed UST(s),"Developed, Medium Intensity",2,0,No,,,,,Yes,GA0870004_5788,GW,WL,031300080703,No,,4,,-84.62800129,30.97738957000007
GA9020105,SUNSHINE TRAVEL,I-95 & HWY 25 EXIT 4,WOODBINE,,Georgia,31569,30.97796551,-81.7268051,Geocode,StreetName,4,0,2,Open UST(s),,,,,,,,,,,,,,,,4,,-81.7268051,30.977965510000047
GA9136071,T & JS COUNTRY STORE,3893 DOLLAR STORE RD,OCHLOCKNEE,,Georgia,31773,30.97974151,-84.05940086,Geocode,PointAddress,4,0,0,Open UST(s),Non-Developed,48,12,No,,,,,No,,,,,No,,4,,-84.05940086,30.979741510000053
GA430129,GEORGIA PALM BEACH ALUMINUM WIND,JABARA RD INDUSTRIAL PARK,BAINBRIDGE,,Georgia,39817,30.98194931,-84.63391587,Geocode,StreetName,0,2,0,Closed UST(s),,,,,,,,,,,,,,,,4,,-84.63391587,30.98194931000006
GA4430096,RENTZ FARM SUPPLY,1023 BRINSON AIRBASE ROAD,BRINSON,,Georgia,39825,30.98244614,-84.66120599,Geocode,StreetAddress,0,1,0,Closed UST(s),Non-Developed,4,2,No,,,,,Yes,GA0870004_5788,GW,WL,031300080703,No,,4,,-84.66120599,30.982446140000036
GA4430097,RENTZ FARM SUPPLY,1023 BRINSON AIRBASE RD,BRINSON,,Georgia,39825,30.98244614,-84.66120599,Geocode,StreetAddress,0,1,0,Closed UST(s),Non-Developed,4,2,No,,,,,Yes,GA0870004_5788,GW,WL,031300080703,No,,4,,-84.66120599,30.982446140000036
GA9136044,THOMAS CO BD OF EDUC-MAINT FAC/B,US 19,THOMASVILLE,,Georgia,31790,30.98341736,-84.04015707,Geocode,StreetName,0,2,0,Closed UST(s),,,,,,,,,,,,,,,,4,,-84.04015707,30.983417360000033
GA4140047,SAND HILL GROCERY,5455 HWY 122,PAVO,,Georgia,31778,30.98484844,-83.65183033,Geocode,PointAddress,3,0,0,Open UST(s),Non-Developed,5,3,No,,,,,No,,,,,No,,4,,-83.65183033,30.984848440000064
GA9125021,HICKS FLYING,BRACKIN ROAD,DONALSONVILLE,,Georgia,39845,30.98486882,-84.94535848,Geocode,StreetName,0,2,0,Closed UST(s),,,,,,,,,,,,,,,,4,,-84.94535848,30.98486882000003
GA650070,PURE COUNTRY STORE LLC,2752 HWY 112 N,Cairo,,Georgia,39827,30.98505509,-84.25708036,Geocode,StreetAddress,2,2,0,Open UST(s),Non-Developed,11,4,No,,,,,No,,,,,No,,4,,-84.25708036,30.98505509000006
GA320013,UNION CAMP,US HWY 84,DUPONT,,Georgia,31630,30.98721623,-82.8762167,Geocode,StreetName,0,1,0,Closed UST(s),,,,,,,,,,,,,,,,4,,-82.8762167,30.987216230000058
GA320039,REGISTER SVC STA,US HWY 84,DUPONT,,Georgia,31630,30.98721623,-82.8762167,Geocode,StreetName,0,4,0,Closed UST(s),,,,,,,,,,,,,,,,4,,-82.8762167,30.987216230000058
GA9032005,ABANDONED SVC STA,US HWY 84,DUPONT,,Georgia,31630,30.98721623,-82.8762167,Geocode,StreetName,0,1,0,Closed UST(s),,,,,,,,,,,,,,,,4,,-82.8762167,30.987216230000058
GA10000632,STELLA MINSON PROPERTY,U S HWY 84,DUPONT,,Georgia,31630,30.98721623,-82.8762167,Geocode,StreetName,0,4,0,Closed UST(s),,,,,,,,,,,,,,,,4,,-82.8762167,30.987216230000058
GA9136012,GRIFFIN COUNTRY CORNER GROCERY S,US HWY 319 & MURPHY RD,COOLIDGE,,Georgia,31738,30.988845,-83.8771695,Geocode,StreetInt,0,2,0,Closed UST(s),"Developed, Low Intensity",15,7,No,,,,,Yes,GA2750001_9346,GW,WL,031200020303,No,,4,,-83.8771695,30.988845000000026
GA9092074,DISCOUNT CENTER,205 S CHURCH ST,HAHIRA,,Georgia,31632,30.98932257,-83.3719604,Geocode,PointAddress,0,0,2,Open UST(s),"Developed, Open Space",483,53,No,,,,,Yes,GA1850000_22679,GW,WL,031102040504,No,,4,,-83.3719604,30.98932257000007
GA920028,HAHIRA CITGO STATION,201 S CHURCH,HAHIRA,,Georgia,31632,30.98989759,-83.37217092,Geocode,PointAddress,0,3,0,Closed UST(s),"Developed, Medium Intensity",472,53,No,,,,,Yes,GA1850000_22679,GW,WL,031102040504,No,,4,,-83.37217092,30.989897590000055
GA10000634,SUWANNOOCHEE RESERVATIONS INC,HWY 84 & WILLIAMS STREET,DUPONT,,Georgia,31630,30.989979,-82.8689265,Geocode,StreetInt,0,1,0,Closed UST(s),"Developed, Low Intensity",75,23,No,,,,,Yes,GA0650004_5278,GW,WL,031102010302,No,,4,,-82.8689265,30.989979000000062
GA9092274,JIMMY'S 66,405 W MAIN ST,HAHIRA,,Georgia,31632,30.99033516,-83.376695,Geocode,PointAddress,0,7,0,Closed UST(s),"Developed, Low Intensity",210,23,No,,,,,Yes,GA1850000_22679,GW,WL,031102040504,No,,4,,-83.376695,30.99033516000003
GA320024,QUICK STOP,US HWY 84 E & NELSON ST,DUPONT,,Georgia,31630,30.990735,-82.8683325,Geocode,StreetInt,2,2,0,Open UST(s),"Developed, Open Space",75,23,No,,,,,Yes,GA0650004_5278,GW,WL,031102010302,No,,4,,-82.8683325,30.99073500000003
GA920119,CITY OF HAHIRA,102 S CHURCH STREET,HAHIRA,,Georgia,31632,30.99092951,-83.37260167,Geocode,PointAddress,0,1,0,Closed UST(s),"Developed, High Intensity",456,55,No,,,,,Yes,GA1850000_22679,GW,WL,031102040504,No,,4,,-83.37260167,30.990929510000058
GA9092130,GA DOT #10480 HAHIRA MAINT HDQTS,UNION RD 38 1/4 MI S OF SR 122,HAHIRA,,Georgia,31632,30.99141577,-83.37280265,Geocode,StreetAddressExt,0,2,0,Closed UST(s),,,,,,,,,,,,,,,,4,,-83.37280265,30.99141577000006
GA920125,HAHIRA PURE,1018 GEORGIA HIGHWAY 122 WEST,HAHIRA,,Georgia,31632,30.99178871,-83.38638238,Geocode,PointAddress,0,3,0,Closed UST(s),"Developed, Low Intensity",23,2,No,,,,,Yes,GA1850000_22679,GW,WL,031102040504,No,,4,,-83.38638238,30.991788710000037
GA9125017,J & L CAR WASH & DETAIL,101 DUNHAM ST,IRON CITY,,Georgia,39859,30.99248676,-84.76438221,Geocode,StreetName,0,0,1,Open UST(s),,,,,,,,,,,,,,,,4,,-84.76438221,30.992486760000077
GA909221,BIG FOOT TRAVEL CENTER,1311 HWY 122 WEST,HAHIRA,,Georgia,31632,30.99251932,-83.38911793,Geocode,PointAddress,6,0,0,Open UST(s),"Developed, Low Intensity",16,3,No,,,,,Yes,GA1850000_22679,GW,WL,031102040504,No,,4,,-83.38911793,30.992519320000042
GA9092257,HAHIRA QUICK STOP #965,1305 HWY 122 WEST,HAHIRA,,Georgia,31632,30.99265025,-83.38955003,Geocode,PointAddress,0,8,0,Closed UST(s),"Developed, Medium Intensity",15,3,No,,,,,Yes,GA1850000_22679,GW,WL,031102040504,No,,4,,-83.38955003,30.992650250000054
GA9092282,BP FOOD STORE,1300 HIGHWAY 122 W,HAHIRA,,Georgia,31632,30.99291975,-83.3902925,Geocode,PointAddress,4,0,0,Open UST(s),"Developed, Medium Intensity",14,3,No,,,,,Yes,GA1850000_22679,GW,WL,031102040504,No,,4,,-83.3902925,30.992919750000056
GA920203,HAHIRA GA MOTEL LTD,175 & GA HWY 122 W,HAHIRA,,Georgia,31632,30.99529719,-83.41839519,Geocode,StreetName,0,2,0,Closed UST(s),,,,,,,,,,,,,,,,4,,-83.41839519,30.99529719000003
GA10002109,LITTLE RIVER GROCERY,8235 HWY 122 WEST,HAHIRA,,Georgia,31632,30.99661797,-83.43876583,Geocode,PointAddress,1,0,0,Open UST(s),Non-Developed,12,5,No,,,,,No,,,,,No,,4,,-83.43876583,30.996617970000045
GA4430075,R G HEARD FARMS INC,516 BRINSON COLQUITT RD,BRINSON,,Georgia,39825,30.9984101,-84.73135748,Geocode,StreetAddress,0,5,0,Closed UST(s),"Developed, Open Space",1,0,No,,,,,No,,,,,No,,4,,-84.73135748,30.998410100000058
GA9136024,GEORGIA NORTH PLANT (AKA OIL DRI OCHLOCKEE PLANT),28990 GA HWY 3 N,OCHLOCKNEE,,Georgia,31773,30.99939398,-84.06043,Geocode,PointAddress,0,1,0,Closed UST(s),"Developed, Low Intensity",6,1,No,,,,,Yes,GA2750040_23468,GW,WL,031200020503,No,,4,,-84.06043,30.999393980000036
GA632000,FRIENDLY EXPRESS #7,HWY 121 & US 1,RACEPOND,,Georgia,31529,31.000896,-82.128672,Geocode,StreetInt,0,5,0,Closed UST(s),"Developed, Low Intensity",6,2,No,,,,,No,,,,,No,,4,,-82.128672,31.00089600000007
GA1250004,SUNSHINE JR FOOD STORE #431,US HWY 84,IRON CITY,,Georgia,39859,31.00172493,-84.7858868,Geocode,StreetName,0,6,0,Closed UST(s),,,,,,,,,,,,,,,,4,,-84.7858868,31.001724930000023
GA1250025,LAMAR BURKE,HWY 84,IRON CITY,,Georgia,39859,31.00172493,-84.7858868,Geocode,StreetName,0,1,0,Closed UST(s),,,,,,,,,,,,,,,,4,,-84.7858868,31.001724930000023
GA650007,SHIVER ELEM SCHOOL,1847 HWY 93 NORTH,PELHAM,,Georgia,31779,31.00306547,-84.20433554,Geocode,PointAddress,0,2,0,Closed UST(s),Non-Developed,11,5,No,,,,,Yes,GA1310003_6659,GW,WL,031200020501,No,,4,,-84.20433554,31.003065470000024
GA1250006,CITY MOTOR CO INC DHA SHINGLER C,HWY 84 WEST,SEMINOLE,,Georgia,31745,31.00328818,-84.78950679,Geocode,StreetName,0,1,0,Closed UST(s),,,,,,,,,,,,,,,,4,,-84.78950679,31.003288180000027
GA320009,GA FC,US HWY 441/1.5 MILES NW,HOMERVILLE,,Georgia,31634,31.00724666,-82.70609123,Geocode,StreetName,0,1,0,Closed UST(s),,,,,,,,,,,,,,,,4,,-82.70609123,31.007246660000078
GA320010,GA FC/CLINCH CO UNIT,US HWY 441/1 MILE NW,HOMERVILLE,,Georgia,31634,31.00724666,-82.70609123,Geocode,StreetName,0,5,0,Closed UST(s),,,,,,,,,,,,,,,,4,,-82.70609123,31.007246660000078
GA320012,GA DOT #10413/CLINCH CO MAINT HQ,GA HWY 89,HOMERVILLE,,Georgia,31634,31.00724666,-82.70609123,Geocode,StreetName,0,2,0,Closed UST(s),,,,,,,,,,,,,,,,4,,-82.70609123,31.007246660000078
GA320017,AT&T,US HWY 441/6 MI NORTH,HOMERVILLE,,Georgia,31634,31.00724666,-82.70609123,Geocode,StreetName,0,1,0,Closed UST(s),,,,,,,,,,,,,,,,4,,-82.70609123,31.007246660000078
GA9032012,CLINCH CO MAINT SHOP,HWY 441 N,HOMERVILLE,,Georgia,31634,31.00724666,-82.70609123,Geocode,StreetName,0,2,0,Closed UST(s),,,,,,,,,,,,,,,,4,,-82.70609123,31.007246660000078
GA1360182,SHREEJI DHRUV,4023 S PINE ST,COOLIDGE,,Georgia,31738,31.00752106,-83.86767529,Geocode,StreetAddress,3,0,0,Open UST(s),"Developed, Low Intensity",169,32,No,,,,,No,,,,,No,,4,,-83.86767529,31.007521060000045
GA10001619,BARNEY PEACH MART,13890 HWY 122,BARNEY,,Georgia,31625,31.00854252,-83.51353427,Geocode,PointAddress,3,0,0,Open UST(s),"Developed, Low Intensity",51,32,No,,,,,No,,,,,No,,4,,-83.51353427,31.00854252000005
GA1360015,FRANKLIN I SMITH FARMS INC,6788 PATTON RD,COOLIDGE,,Georgia,31738,31.0107935,-83.8642188,Geocode,Postal,0,2,0,Closed UST(s),,,,,,,,,,,,,,,,4,,-83.8642188,31.010793500000034
GA1360091,K R SMITH FARMS,RTE 2,COOLIDGE,,Georgia,31738,31.0107935,-83.8642188,Geocode,Postal,0,3,0,Closed UST(s),,,,,,,,,,,,,,,,4,,-83.8642188,31.010793500000034
GA9136043,J G WHALEY SVC STATION,APPC 100 FT NORTH OF NW INTER,COOLIDGE,,Georgia,31738,31.0107935,-83.8642188,Geocode,Postal,0,2,0,Closed UST(s),,,,,,,,,,,,,,,,4,,-83.8642188,31.010793500000034
GA1360127,COOLIDGE FERTILIZER & FARM SUPPL,US HWY 319,COOLIDGE,,Georgia,31738,31.01105175,-83.86665808,Geocode,StreetName,0,2,0,Closed UST(s),,,,,,,,,,,,,,,,4,,-83.86665808,31.011051750000036
GA9136052,UNKNOWN,HWY 319,COOLIDGE,,Georgia,31738,31.01105175,-83.86665808,Geocode,StreetName,0,5,0,Closed UST(s),,,,,,,,,,,,,,,,4,,-83.86665808,31.011051750000036
GA1360155,SHREEJI MITAL LLC,1016 W JAPONICA AVE,COOLIDGE,,Georgia,31738,31.01159701,-83.86701538,Geocode,PointAddress,2,0,1,Open UST(s),"Developed, Low Intensity",251,49,No,,,,,No,,,,,No,,4,,-83.86701538,31.01159701000006
GA9125010,GREENE POULTRY CO,84 EAST,IRON CITY,,Georgia,39859,31.013343,-84.8113324,Geocode,Postal,0,1,0,Closed UST(s),,,,,,,,,,,,,,,,4,,-84.8113324,31.013343000000077
GA10000135,IRON CITY CONVENIENCE STORE,111 S CHURCH ST,IRON CITY,,Georgia,39859,31.013748,-84.8128455,Geocode,StreetName,2,0,0,Open UST(s),,,,,,,,,,,,,,,,4,,-84.8128455,31.013748000000078
GA1010072,GASSETT SERV STATION,PO BOX 48/US HWY 19,MEIGS,,Georgia,31765,31.01377322,-84.05419852,Geocode,StreetName,0,4,0,Closed UST(s),,,,,,,,,,,,,,,,4,,-84.05419852,31.013773220000076
GA1360017,JAMES A CARTER ESTATE,HWY 19 & 111,MEIGS,,Georgia,31765,31.01377322,-84.05419852,Geocode,StreetName,0,3,0,Closed UST(s),,,,,,,,,,,,,,,,4,,-84.05419852,31.013773220000076
GA1250035,GTE/CTC OF THE SOUTH-IRON CITY C,45 CHURCH ST,IRON CITY,,Georgia,39859,31.01387349,-84.81284637,Geocode,StreetAddressExt,0,1,0,Closed UST(s),,,,,,,,,,,,,,,,4,,-84.81284637,31.013873490000037
GA10000832,FORMERLY MICKIE BATALO PROPERTY,5215 GA HIGHWAY 122 EAST,HAHIRA,,Georgia,31632,31.01425313,-83.29776728,Geocode,PointAddress,0,1,0,Closed UST(s),Non-Developed,22,4,No,,,,,Yes,GA1850043_7760,GW,WL,031102030403,No,,4,,-83.29776728,31.014253130000043
GA9136042,SUPER FOOD CHAMP,3023 N PINE ST,COOLIDGE,,Georgia,31738,31.01447095,-83.8656738,Geocode,PointAddress,4,4,0,Open UST(s),"Developed, Medium Intensity",268,52,No,,,,,No,,,,,No,,4,,-83.8656738,31.01447095000003
GA320036,BROCKWAY STANDARD,US HWY 84 W,HOMERVILLE,,Georgia,31634,31.01641785,-82.81530986,Geocode,StreetName,0,1,0,Closed UST(s),,,,,,,,,,,,,,,,4,,-82.81530986,31.01641785000004
GA9020100,REEDS GROCERY,4426 BURNT FORT RD HWY 252,WHITE OAK,,Georgia,31568,31.01939194,-81.80419664,Geocode,PointAddress,1,2,1,Open UST(s),Non-Developed,3,2,No,,,,,No,,,,,No,,4,,-81.80419664,31.019391940000048
GA9004001,ESTELLE THOMPSON,GA HWY 253,COLQUITT,,Georgia,39837,31.01947184,-84.54574605,Geocode,StreetName,0,2,0,Closed UST(s),,,,,,,,,,,,,,,,4,,-84.54574605,31.01947184000005
GA9043042,C & P COUNTRY STORE,2639 NEWTON RD,BAINBRIDGE,,Georgia,39817,31.01992083,-84.54230432,Geocode,StreetAddress,0,2,0,Closed UST(s),Non-Developed,4,2,No,,,,,No,,,,,No,,4,,-84.54230432,31.019920830000046
GA9043657,T E DAVIS GROCERY,4159 VADA RD,CLIMAX,,Georgia,31717,31.02237301,-84.46215249,Geocode,StreetAddress,0,3,0,Closed UST(s),Non-Developed,11,5,No,,,,,No,,,,,Yes,,4,,-84.46215249,31.022373010000024
GA650031,GILLIARDS STORE,2275 HWY 93 NORTH,PELHAM,,Georgia,31779,31.02327409,-84.20398933,Geocode,StreetAddressExt,2,5,0,Open UST(s),,,,,,,,,,,,,,,,4,,-84.20398933,31.02327409000003
GA10002301,CROSSROAD PANTRY,1385 W HWY 122,LAKELAND,,Georgia,31635,31.02542627,-83.17879545,Geocode,StreetAddress,4,0,0,Open UST(s),"Developed, Open Space",20,9,No,,,,,No,,,,,No,,4,,-83.17879545,31.025426270000025
GA9086003,TRI COUNTY GROCERY,4 HWY 125 N,RAY CITY,,Georgia,31645,31.02562393,-83.19789276,Geocode,StreetAddress,3,0,0,Open UST(s),Non-Developed,81,37,No,,,,,Yes,GA1850030_7747,GW,WL,031102030302,No,,4,,-83.19789276,31.02562393000005
GA9086002,PETRO #155  C MART,603 OAK ST,LAKELAND,,Georgia,31635,31.02596861,-83.06601379,Geocode,StreetAddress,3,0,0,Open UST(s),"Developed, Open Space",52,1,No,,,,,Yes,GA1730015_17706,GW,WL,031102020901,No,,4,,-83.06601379,31.025968610000064
GA10002410,DOLLAR GENERAL #851,907 MARIANNA HWY,DONALSONVILLE,,Georgia,39845,31.02649415,-84.88929486,Geocode,StreetAddress,3,0,0,Open UST(s),Non-Developed,136,9,No,,,,,No,,,,,Yes,,4,,-84.88929486,31.026494150000076
GA860010,LAKELAND OIL CO INC,802 VALDOSTA HWY,LAKELAND,,Georgia,31635,31.02666453,-83.07187545,Geocode,StreetAddress,0,6,0,Closed UST(s),Non-Developed,60,0,No,,,,,Yes,GA1730015_17706,GW,WL,031102020901,No,,4,,-83.07187545,31.026664530000062
GA860018,LANIER COUNTY PRIMARY SCHOOL,242 VALDOSTA RD,LAKELAND,,Georgia,31635,31.02673704,-83.07187304,Geocode,StreetAddress,0,2,0,Closed UST(s),Non-Developed,63,0,No,,,,,Yes,GA1730015_17706,GW,WL,031102020901,No,,4,,-83.07187304,31.026737040000057
GA320037,CLINCH CO SCHOOL BUS SHOP,707 WIREGRASS ST,HOMERVILLE,,Georgia,31634,31.02704396,-82.74058064,Geocode,PointAddress,0,2,0,Closed UST(s),"Developed, Low Intensity",123,4,No,,,,,Yes,GA0650000_5276,GW,WL,031102010201,No,,4,,-82.74058064,31.02704396000007
GA1250022,AMFI,MARIANNA HWY RTE 4 BOX 265,DONALSONVILLE,,Georgia,39845,31.02879884,-84.88451685,Geocode,StreetName,0,3,0,Closed UST(s),,,,,,,,,,,,,,,,4,,-84.88451685,31.028798840000036
GA320004,SLASH PINE EMC,LYNCH ST/US HWY 84/PO BOX 356,HOMERVILLE,,Georgia,31634,31.03129261,-82.76996937,Geocode,StreetName,0,1,0,Closed UST(s),,,,,,,,,,,,,,,,4,,-82.76996937,31.031292610000037
GA320021,CONTAINER CORP OF AMERICA,HWY 84,HOMERVILLE,,Georgia,31634,31.03129261,-82.76996937,Geocode,StreetName,0,2,0,Closed UST(s),,,,,,,,,,,,,,,,4,,-82.76996937,31.031292610000037
GA320035,HOMERVILLE SAWMILL,HWY 84,HOMERVILLE,,Georgia,31634,31.03129261,-82.76996937,Geocode,StreetName,0,1,0,Closed UST(s),,,,,,,,,,,,,,,,4,,-82.76996937,31.031292610000037
GA9032002,FIVEASH SVC STA,US HWY 84,HOMERVILLE,,Georgia,31631,31.03129261,-82.76996937,Geocode,StreetName,0,3,0,Closed UST(s),,,,,,,,,,,,,,,,4,,-82.76996937,31.031292610000037
GA650074,MOBLEY FARMS,1356 STAGECOACH RD,PELHAM,,Georgia,31779,31.0315208,-84.16199197,Geocode,PointAddress,0,2,0,Closed UST(s),Non-Developed,8,5,No,,,,,No,,,,,No,,4,,-84.16199197,31.031520800000067
GA9086004,LAKELAND QUICK STOP,121 S VALDOSTA RD,LAKELAND,,Georgia,31635,31.03160293,-83.07189841,Geocode,PointAddress,3,1,0,Open UST(s),"Developed, Low Intensity",144,2,No,,,,,Yes,GA1730015_17706,GW,WL,031102020901,No,,4,,-83.07189841,31.031602930000076
GA860007,LANIER COUNTY MIDDLE SCHOOL,311 SOUTH 10TH AVE,LAKELAND,,Georgia,31635,31.03163076,-83.0609425,Geocode,StreetAddress,0,1,0,Closed UST(s),"Developed, Open Space",319,10,No,,,,,No,,,,,No,,4,,-83.0609425,31.03163076000004
GA10002402,DOLLAR GENERAL #1623,142 S VALDOSTA RD,LAKELAND,,Georgia,31635,31.03196292,-83.07203128,Geocode,PointAddress,3,0,0,Open UST(s),"Developed, Medium Intensity",152,3,No,,,,,Yes,GA1730015_17706,GW,WL,031102020901,No,,4,,-83.07203128,31.03196292000007
GA320034,QUICK SHOP,315 WEST FOREST AVE,HOMERVILLE,,Georgia,31634,31.0320784,-82.75073327,Geocode,StreetAddress,0,2,0,Closed UST(s),"Developed, Low Intensity",316,44,No,,,,,Yes,GA0650000_5276,GW,WL,031102010201,No,,4,,-82.75073327,31.032078400000046
GA650019,COOPERS GROCERY,1169 SPENCE RD,PELHAM,,Georgia,31779,31.03210775,-84.16477316,Geocode,PointAddress,0,2,0,Closed UST(s),Non-Developed,8,4,No,,,,,No,,,,,No,,4,,-84.16477316,31.03210775000008
GA9125012,SEMINOLE FOOD SHOP,900 S TENNILLE AVE,DONALSONVILLE,,Georgia,39845,31.03225065,-84.87954552,Geocode,StreetAddress,3,0,0,Open UST(s),"Developed, Medium Intensity",220,21,No,,,,,Yes,GA2530000_9083,GW,WL,031300100702,Yes,,4,,-84.87954552,31.032250650000037
GA320002,CLINCH CO/BUS SHOP-CLOSED,GILLICAN CIRCLE,HOMERVILLE,,Georgia,31634,31.03247342,-82.7593022,Geocode,StreetName,0,1,0,Closed UST(s),,,,,,,,,,,,,,,,4,,-82.7593022,31.03247342000003
GA320041,GRIFFIS 66,308 SOUTH CHURCH,HOMERVILLE,,Georgia,31634,31.03249972,-82.7446451,Geocode,StreetAddress,0,4,0,Closed UST(s),"Developed, Medium Intensity",324,17,No,,,,,Yes,GA0650000_5274,GW,WL,031102010201,No,,4,,-82.7446451,31.032499720000033
GA9032006,HOMERVILLE AUTO & TIRE,305 S CHURCH ST,HOMERVILLE,,Georgia,31634,31.03264877,-82.7445962,Geocode,StreetAddress,0,4,0,Closed UST(s),"Developed, Medium Intensity",328,17,No,,,,,Yes,GA0650000_5274,GW,WL,031102010201,No,,4,,-82.7445962,31.032648770000037
GA9032004,FLASH FOODS #170,301 S CHURCH ST,HOMERVILLE,,Georgia,31634,31.03273599,-82.74464916,Geocode,StreetAddress,0,7,0,Closed UST(s),"Developed, Medium Intensity",328,17,No,,,,,Yes,GA0650000_5274,GW,WL,031102010201,No,,4,,-82.74464916,31.03273599000005
GA10001774,HUEYS ONE STOP,193 S CHURCH ST,HOMERVILLE,,Georgia,31634,31.03400411,-82.74551739,Geocode,PointAddress,3,0,0,Open UST(s),"Developed, Medium Intensity",317,18,No,,,,,Yes,GA0650000_5274,GW,WL,031102010201,No,,4,,-82.74551739,31.03400411000007
GA9032014,CLINCH COUNTY BOARD OF EDUCATION,119 S COLLEGE STREET,HOMERVILLE,,Georgia,31634,31.03414249,-82.75008411,Geocode,StreetAddress,0,1,0,Closed UST(s),"Developed, Low Intensity",319,31,No,,,,,Yes,GA0650000_5276,GW,WL,031102010201,No,,4,,-82.75008411,31.03414249000008
GA9032013,COMMISSARY EXPRESS,803 W DAME AVE,HOMERVILLE,,Georgia,31634,31.03443034,-82.75992804,Geocode,StreetAddress,3,0,0,Open UST(s),Non-Developed,155,6,No,,,,,Yes,GA0650000_5276,GW,WL,031102010201,No,,4,,-82.75992804,31.03443034000003
GA1250034,BROOME FARMS,RTE 2/OFF HWY 285,DONALSONVILLE,,Georgia,39845,31.03475018,-84.88279575,Geocode,StreetAddressExt,0,2,0,Closed UST(s),,,,,,,,,,,,,,,,4,,-84.88279575,31.03475018000006
GA320026,EDS GULF SVC STA,FOREST & CHURCH ST,HOMERVILLE,,Georgia,31634,31.034907,-82.746306,Geocode,StreetInt,0,1,5,Open UST(s),"Developed, Low Intensity",324,21,No,,,,,Yes,GA0650000_5274,GW,WL,031102010201,No,,4,,-82.746306,31.034907000000032
GA860002,FENNIS MILLER SEPTIC TANK CO,PO BOX 246,LAKELAND,,Georgia,31635,31.0354641,-83.0648318,Geocode,Postal,0,1,0,Closed UST(s),,,,,,,,,,,,,,,,4,,-83.0648318,31.03546410000007
GA860013,LANIER UNIT 08-086,RT 1,LAKELAND,,Georgia,31635,31.0354641,-83.0648318,Geocode,Postal,0,1,0,Closed UST(s),,,,,,,,,,,,,,,,4,,-83.0648318,31.03546410000007
GA870066,GLENN LEE,RT 1,LAKELAND,,Georgia,31635,31.0354641,-83.0648318,Geocode,Postal,0,2,0,Closed UST(s),,,,,,,,,,,,,,,,4,,-83.0648318,31.03546410000007
GA870067,ELIJAH LOVE,RT 1,LAKELAND,,Georgia,31635,31.0354641,-83.0648318,Geocode,Postal,0,2,0,Closed UST(s),,,,,,,,,,,,,,,,4,,-83.0648318,31.03546410000007
GA9086001,ALLTEL/GTE/LAKELAND CENTRAL OFFI,SOUTHEAST MURIEL & TEMPLE ST,LAKELAND,,Georgia,31635,31.0354641,-83.0648318,Geocode,Postal,0,1,0,Closed UST(s),,,,,,,,,,,,,,,,4,,-83.0648318,31.03546410000007
GA320001,HOMERVILLE/BARN,200 WEST DAME AVE,HOMERVILLE,,Georgia,31634,31.0361532,-82.74983646,Geocode,StreetAddress,0,1,0,Closed UST(s),"Developed, Open Space",335,17,No,,,,,Yes,GA0650000_5276,GW,WL,031102010201,No,,4,,-82.74983646,31.036153200000058
GA320029,QUICK CHANGE #33,101 WEST DAME AVE,HOMERVILLE,,Georgia,31634,31.03627455,-82.74905955,Geocode,StreetAddress,0,16,3,Open UST(s),"Developed, Low Intensity",319,18,No,,,,,Yes,GA0650000_5276,GW,WL,031102010201,No,,4,,-82.74905955,31.03627455000003
GA320032,CROWN FAST FARE GA 527/ZIPPY MAR,106 WEST DAME AVE,HOMERVILLE,,Georgia,31634,31.03642114,-82.74903603,Geocode,StreetAddress,0,2,0,Closed UST(s),"Developed, Low Intensity",323,17,No,,,,,Yes,GA0650000_5276,GW,WL,031102010201,No,,4,,-82.74903603,31.036421140000073
GA10000191,CECIL GROCERY,608 HWY 41,CECIL,,Georgia,31627,31.03651629,-83.38813055,Geocode,StreetAddress,2,0,0,Open UST(s),Non-Developed,18,5,No,,,,,Yes,GA0750001_5530,GW,WL,031102040504,No,,4,,-83.38813055,31.036516290000066
GA320014,UNION CAMP,P O BOX 297,HOMERVILLE,,Georgia,31634,31.0368049,-82.7473347,Geocode,Postal,0,1,0,Closed UST(s),,,,,,,,,,,,,,,,4,,-82.7473347,31.03680490000005
GA320015,HUGHES OIL,P O BOX 297,HOMERVILLE,,Georgia,31634,31.0368049,-82.7473347,Geocode,Postal,0,3,0,Closed UST(s),,,,,,,,,,,,,,,,4,,-82.7473347,31.03680490000005
GA320033,HERCULES INC,HOMERVILLE YARD IND PARK,HOMERVILLE,,Georgia,31634,31.0368049,-82.7473347,Geocode,Postal,0,3,0,Closed UST(s),,,,,,,,,,,,,,,,4,,-82.7473347,31.03680490000005
GA9032011,RYDER TRUCK @ DOLLAR GEN DIST,CLINCH CO INDUSTRIAL PARK,HOMERVILLE,,Georgia,31634,31.0368049,-82.7473347,Geocode,Postal,0,1,0,Closed UST(s),,,,,,,,,,,,,,,,4,,-82.7473347,31.03680490000005
GA9032016,DESIGN SPACE INC,INDUSTRIAL PARK DRIVE,HOMERVILLE,,Georgia,31634,31.0368049,-82.7473347,Geocode,Postal,0,1,0,Closed UST(s),,,,,,,,,,,,,,,,4,,-82.7473347,31.03680490000005
GA320038,DOWNTOWN PHILLIPS 66,104 EAST DAME,HOMERVILLE,,Georgia,31634,31.03711581,-82.74577948,Geocode,StreetAddress,0,8,0,Closed UST(s),"Developed, High Intensity",364,24,No,,,,,Yes,GA0650000_5274,GW,WL,031102010201,No,,4,,-82.74577948,31.037115810000046
GA10000582,VACANT(GDOT EDS-84(20) PARCAL #121,101 EAST DAME STREET,HOMERVILLE,,Georgia,31634,31.03724716,-82.74580147,Geocode,StreetAddress,0,4,0,Closed UST(s),"Developed, Low Intensity",365,24,No,,,,,Yes,GA0650000_5274,GW,WL,031102010201,No,,4,,-82.74580147,31.03724716000005
GA860008,BULL DOGS #1,305 W MAIN ST,LAKELAND,,Georgia,31635,31.03785011,-83.09116515,Geocode,StreetAddress,2,0,0,Open UST(s),"Developed, Open Space",298,0,No,,,,,Yes,GA1730015_17706,GW,WL,031102020901,No,,4,,-83.09116515,31.03785011000008
GA9032003,CORNER PANTRY #931,95 N CHURCH ST,HOMERVILLE,,Georgia,31634,31.03794937,-82.74780721,Geocode,PointAddress,3,0,0,Open UST(s),"Developed, Low Intensity",366,20,No,,,,,Yes,GA0650016_23068,GW,WL,031102010104,No,,4,,-82.74780721,31.037949370000035
GA860006,LAKELAND OIL CO INC,308 W MAIN ST,LAKELAND,,Georgia,31635,31.03797937,-83.09119392,Geocode,StreetAddress,0,0,4,Open UST(s),"Developed, Open Space",301,0,No,,,,,Yes,GA1730015_17706,GW,WL,031102020901,No,,4,,-83.09119392,31.037979370000073
GA10001916,GIDDENS CHEVROLET,202 WEST MAIN STREET,LAKELAND,,Georgia,31635,31.03847113,-83.0882567,Geocode,StreetAddress,1,3,0,Open UST(s),"Developed, Open Space",426,6,No,,,,,Yes,GA1730015_17706,GW,WL,031102020901,No,,4,,-83.0882567,31.03847113000006
GA320020,INTERSTATE NATIONALEASE END/ITL,102 MORGAN ST,HOMERVILLE,,Georgia,31634,31.03904103,-82.75046537,Geocode,StreetAddress,0,1,0,Closed UST(s),"Developed, Open Space",409,8,No,,,,,Yes,GA0650000_5276,GW,WL,031102010201,No,,4,,-82.75046537,31.039041030000078
GA320040,66 FUEL CENTER,398 EAST DAME,HOMERVILLE,,Georgia,31634,31.03912999,-82.74069951,Geocode,PointAddress,4,1,0,Open UST(s),"Developed, Low Intensity",258,23,No,,,,,Yes,GA0650016_23068,GW,WL,031102010104,No,,4,,-82.74069951,31.03912999000005
GA320022,RAYS SVC STA/HOMERVILLE EHRLEE S,205 NORTH CHURCH ST,HOMERVILLE,,Georgia,31634,31.03923701,-82.74853002,Geocode,StreetAddress,0,5,0,Closed UST(s),"Developed, Low Intensity",390,20,No,,,,,Yes,GA0650016_23068,GW,WL,031102010104,No,,4,,-82.74853002,31.03923701000008
GA860019,DIXIE BAY STATION #682,WEST MAIN ST,LAKELAND,,Georgia,31635,31.0392875,-83.08148319,Geocode,StreetName,0,5,0,Closed UST(s),,,,,,,,,,,,,,,,4,,-83.08148319,31.039287500000057
GA4100007,ROBINSON SVC STA,101 WEST MAIN ST,LAKELAND,,Georgia,31635,31.03947896,-83.07994852,Geocode,StreetAddress,0,5,0,Closed UST(s),"Developed, Open Space",521,16,No,,,,,Yes,GA1730000_7359,GW,WL,031102020803,No,,4,,-83.07994852,31.039478960000054
GA10002462,PROPOSED FAMILY DOLLAR,505 EAST THIRD STREET,DONALSONVILLE,,Georgia,39845,31.04023302,-84.87578123,Geocode,StreetAddress,0,1,0,Closed UST(s),"Developed, Medium Intensity",314,33,No,,,,,Yes,GA2530000_9084,GW,WL,031300100701,No,,4,,-84.87578123,31.040233020000073
GA1250015,FAST STOP,309 E THIRD ST,DONALSONVILLE,,Georgia,39845,31.04033668,-84.87904091,Geocode,StreetAddress,3,3,0,Open UST(s),"Developed, High Intensity",224,22,No,,,,,Yes,GA2530000_9084,GW,WL,031300100701,No,,4,,-84.87904091,31.040336680000053
GA9125016,MR PIPP'S GAS & DELI,408 E 3RD ST,DONALSONVILLE,,Georgia,39845,31.04041874,-84.87736965,Geocode,StreetAddress,6,0,0,Open UST(s),"Developed, Medium Intensity",280,29,No,,,,,Yes,GA2530000_9084,GW,WL,031300100701,No,,4,,-84.87736965,31.040418740000064
GA9125014,SUPER TRACK,201 W 3RD ST,DONALSONVILLE,,Georgia,39845,31.04042176,-84.88422969,Geocode,StreetAddress,5,0,0,Open UST(s),"Developed, High Intensity",207,11,No,,,,,Yes,GA2530000_9084,GW,WL,031300100701,No,,4,,-84.88422969,31.040421760000072
GA10002467,A KING PROPERTY,303 SOUTH MORRIS AVENUE,DONALSONVILLE,,Georgia,39845,31.04043672,-84.88573964,Geocode,StreetAddress,0,2,0,Closed UST(s),"Developed, Medium Intensity",194,9,No,,,,,Yes,GA2530000_9084,GW,WL,031300100701,No,,4,,-84.88573964,31.04043672000006
GA1250027,SUPER B EXPRESS,300 E THIRD ST,DONALSONVILLE,,Georgia,39845,31.04047729,-84.87914969,Geocode,StreetAddress,5,9,0,Open UST(s),"Developed, High Intensity",214,21,No,,,,,Yes,GA2530000_9084,GW,WL,031300100701,No,,4,,-84.87914969,31.04047729000007
GA1250014,SEYMORS PETRO #224,HWY 84 & KNOX AVE,DONALSONVILLE,,Georgia,39845,31.040487,-84.8841615,Geocode,StreetInt,0,0,4,Open UST(s),"Developed, High Intensity",203,11,No,,,,,Yes,GA2530000_9084,GW,WL,031300100701,No,,4,,-84.8841615,31.04048700000004
GA1250012,RUSHING OIL CO INC,HWY 84 W 214 W THIRD,DONALSONVILLE,,Georgia,39845,31.04055991,-84.88444039,Geocode,StreetAddress,7,7,0,Open UST(s),"Developed, High Intensity",199,10,No,,,,,Yes,GA2530000_9084,GW,WL,031300100701,No,,4,,-84.88444039,31.04055991000007
GA1250023,FAST TRIP 2,401 WEST THIRD ST,DONALSONVILLE,,Georgia,39845,31.04070911,-84.88691392,Geocode,StreetAddress,3,0,0,Open UST(s),"Developed, High Intensity",162,7,No,,,,,Yes,GA2530000_9084,GW,WL,031300100701,No,,4,,-84.88691392,31.040709110000023
GA10002143,JET 91,62 W MAIN ST,LAKELAND,,Georgia,31635,31.04097763,-83.07619251,Geocode,StreetAddress,3,0,0,Open UST(s),"Developed, Medium Intensity",305,34,No,,,,,Yes,GA1730000_7359,GW,WL,031102020803,No,,4,,-83.07619251,31.040977630000043
GA1250001,SEMINOLE SPORTSMAN LODGE & MARIN,2000 S OF HWY 5 39 & 253 ON HWY,DONALSONVILLE,,Georgia,39845,31.0412032,-84.8773051,Geocode,Postal,0,3,0,Closed UST(s),,,,,,,,,,,,,,,,4,,-84.8773051,31.04120320000004
GA1250002,SEMINOLE COUNTY FORESTRY UNIT,RT 1 BOX 15,DONALSONVILLE,,Georgia,39845,31.0412032,-84.8773051,Geocode,Postal,0,4,0,Closed UST(s),,,,,,,,,,,,,,,,4,,-84.8773051,31.04120320000004
GA1250008,GA DEPT PUBLIC SAFETY POST 14,RT 1 BOX 2602,DONALSONVILLE,,Georgia,39845,31.0412032,-84.8773051,Geocode,Postal,0,3,0,Closed UST(s),,,,,,,,,,,,,,,,4,,-84.8773051,31.04120320000004
GA1250018,REESE TIRE & GAS,MAIN ST,DONALSONVILLE,,Georgia,39845,31.0412032,-84.8773051,Geocode,Postal,0,6,0,Closed UST(s),,,,,,,,,,,,,,,,4,,-84.8773051,31.04120320000004
GA1250030,SELDOM REST INC,RT 3 BOX 111,DONALSONVILLE,,Georgia,39845,31.0412032,-84.8773051,Geocode,Postal,0,4,0,Closed UST(s),,,,,,,,,,,,,,,,4,,-84.8773051,31.04120320000004
GA9125009,S W G PACKING FARMS,RT 1 BOX 259,DONALSONVILLE,,Georgia,39845,31.0412032,-84.8773051,Geocode,Postal,0,1,0,Closed UST(s),,,,,,,,,,,,,,,,4,,-84.8773051,31.04120320000004
GA9125023,UNKNOWN/CITY RIGHT OF WAY,SECOND STREET,DONALSONVILLE,,Georgia,39845,31.04122642,-84.87921823,Geocode,StreetName,2,0,0,Open UST(s),,,,,,,,,,,,,,,,4,,-84.87921823,31.041226420000044
GA860012,BOBBYS CITGO,101 CARTER ST,LAKELAND,,Georgia,31635,31.04154179,-83.07520688,Geocode,StreetAddress,3,0,0,Open UST(s),"Developed, Medium Intensity",268,37,No,,,,,Yes,GA1730000_7359,GW,WL,031102020803,No,,4,,-83.07520688,31.041541790000053
GA1250024,THREE NOTCH ELECTRIC MEMBERSHIP,116 WEST SECOND ST,DONALSONVILLE,,Georgia,39845,31.0419286,-84.88282922,Geocode,StreetAddress,1,1,0,Open UST(s),"Developed, High Intensity",134,5,No,,,,,Yes,GA2530000_9084,GW,WL,031300100701,No,,4,,-84.88282922,31.041928600000062
GA9086005,JOHN ROBERSON SERVICE CTR,322 WEST THIGPEN,LAKELAND,,Georgia,31635,31.04196693,-83.09069201,Geocode,StreetAddress,2,0,0,Open UST(s),"Developed, Low Intensity",353,11,No,,,,,Yes,GA1730000_7359,GW,WL,031102020803,No,,4,,-83.09069201,31.041966930000058
GA9125005,WEST FORK,402 WEST 2ND ST,DONALSONVILLE,,Georgia,39845,31.04198504,-84.88723097,Geocode,StreetName,0,3,0,Closed UST(s),,,,,,,,,,,,,,,,4,,-84.88723097,31.041985040000043
GA9125022,SING STATION,201 S TENNILLE AVENUE,DONALSONVILLE,,Georgia,39845,31.04207654,-84.87914504,Geocode,StreetAddress,0,5,0,Closed UST(s),"Developed, Low Intensity",196,15,No,,,,,Yes,GA2530000_9084,GW,WL,031300100701,No,,4,,-84.87914504,31.04207654000004
GA9043034,MASON FARMS,EAST ELDORENDO RD,BAINBRIDGE,,Georgia,39817,31.04237216,-84.55857538,Geocode,StreetName,0,1,0,Closed UST(s),,,,,,,,,,,,,,,,4,,-84.55857538,31.04237216000007
GA320030,STALVEY WOOD PRODUCTS,104 PEACH ST,HOMERVILLE,,Georgia,31634,31.04247758,-82.74825456,Geocode,PointAddress,0,4,0,Closed UST(s),"Developed, Low Intensity",392,29,No,,,,,Yes,GA0650016_23068,GW,WL,031102010104,No,,4,,-82.74825456,31.042477580000025
GA860014,GA DOT #10427/LANIER CO MAINT HQ,SR 11 EAST,LAKELAND,,Georgia,31635,31.0426847,-83.06514448,Geocode,StreetName,0,4,0,Closed UST(s),,,,,,,,,,,,,,,,4,,-83.06514448,31.042684700000052
GA1250005,SOUTHERN CONCRETE CONSTRUCTION C,N WILEY & 1ST ST,DONALSONVILLE,,Georgia,39845,31.042899,-84.8824875,Geocode,StreetInt,0,1,0,Closed UST(s),"Developed, Medium Intensity",134,4,No,,,,,Yes,GA2530000_9084,GW,WL,031300100701,No,,4,,-84.8824875,31.042899000000034
GA9125018,CROOM AVIATION,RT 2 HWY 39,DONALSONVILLE,,Georgia,39845,31.04309543,-84.87922581,Geocode,StreetAddressExt,0,2,0,Closed UST(s),,,,,,,,,,,,,,,,4,,-84.87922581,31.04309543000005
GA9032008,FAMILY PRACTICE CENTER,505 NORTH CHURCH ST,HOMERVILLE,,Georgia,31634,31.0434796,-82.75068885,Geocode,StreetAddress,0,2,0,Closed UST(s),"Developed, Low Intensity",361,17,No,,,,,Yes,GA0650016_23068,GW,WL,031102010104,No,,4,,-82.75068885,31.04347960000007
GA370023,CHEVRON FOOD STORE,1770 OLD COFFEE RD & I-75 SW CORNER,CECIL,,Georgia,31627,31.04351362,-83.40021123,Geocode,StreetAddress,3,6,0,Open UST(s),Non-Developed,8,3,No,,,,,Yes,GA0750001_5530,GW,WL,031102040504,No,,4,,-83.40021123,31.043513620000056
GA10000887,CARTER'S FRIED CHICKEN (GDOT PROJECT EDS-84(20),515 NORTH CHURCH STREET,HOMERVILLE,,Georgia,31634,31.04358121,-82.75073872,Geocode,StreetAddress,0,2,0,Closed UST(s),"Developed, Low Intensity",357,17,No,,,,,Yes,GA0650016_23068,GW,WL,031102010104,No,,4,,-82.75073872,31.04358121000007
GA860017,MIDTOWN MINIT MART,214 E MAIN ST,LAKELAND,,Georgia,31635,31.04365792,-83.05864232,Geocode,StreetAddress,2,3,0,Open UST(s),Non-Developed,87,4,No,,,,,Yes,GA1730000_7360,GW,WL,031102020803,Yes,,4,,-83.05864232,31.043657920000044
GA860009,BULL DOGS #2,314 E MAIN ST,LAKELAND,,Georgia,31635,31.04366594,-83.05858888,Geocode,StreetAddress,3,0,0,Open UST(s),Non-Developed,84,4,No,,,,,Yes,GA1730000_7360,GW,WL,031102020803,Yes,,4,,-83.05858888,31.04366594000004
GA10001881,FAMILY WORLD CITGO,1975 OLD COFFEE RD,CECIL,,Georgia,31627,31.04400791,-83.39845118,Geocode,StreetAddress,2,0,0,Open UST(s),"Developed, Low Intensity",44,14,No,,,,,Yes,GA0750001_5530,GW,WL,031102040504,No,,4,,-83.39845118,31.04400791000006
GA9032015,CLINCH MEMORIAL HOSPITAL,524 NORTH CARSWELL ST,HOMERVILLE,,Georgia,31634,31.04417532,-82.74789618,Geocode,StreetAddress,0,2,0,Closed UST(s),"Developed, Low Intensity",315,30,No,,,,,Yes,GA0650016_23068,GW,WL,031102010104,No,,4,,-82.74789618,31.04417532000008
GA320023,ADENS MINIT MARKET #67,608 NORTH CHURCH ST,HOMERVILLE,,Georgia,31636,31.04442405,-82.7510272,Geocode,StreetAddress,3,4,0,Open UST(s),"Developed, Low Intensity",307,16,No,,,,,Yes,GA0650016_23068,GW,WL,031102010104,No,,4,,-82.7510272,31.044424050000032
GA4430087,ELDORENDA GROCERY,2425 COLQUITT HWY,COLQUITT,,Georgia,39837,31.04446001,-84.65208262,Geocode,StreetAddress,0,2,0,Closed UST(s),"Developed, Open Space",25,13,No,,,,,Yes,GA0870004_5788,GW,WL,031300080703,No,,4,,-84.65208262,31.044460010000023
GA9125006,HOBO PANTRY #16,327 NORTH TENNILE AVE,DONALSONVILLE,,Georgia,39845,31.04455023,-84.87906229,Geocode,StreetAddress,3,5,0,Open UST(s),"Developed, Low Intensity",310,15,No,,,,,Yes,GA2530000_9084,GW,WL,031300100701,No,,4,,-84.87906229,31.044550230000027
GA920152,#929 (DISCOUNT CORNER #1),100 MAIN ST,HAHIRA,,Georgia,31632,31.04577391,-83.39367655,Geocode,StreetAddress,3,0,2,Open UST(s),"Developed, Open Space",142,49,No,,,,,Yes,GA0750001_5530,GW,WL,031102040504,No,,4,,-83.39367655,31.045773910000037
GA1250009,SEMINOLE COUNTY RD DEPT,711 M L KING JR DR,DONALSONVILLE,,Georgia,39845,31.0459208,-84.96294911,Geocode,StreetName,2,1,0,Open UST(s),,,,,,,,,,,,,,,,4,,-84.96294911,31.045920800000033
GA10002776,SUTTON PROPERTY,840 PEARSON Highway,HOMERVILLE,,Georgia,31634,31.04605438,-82.75452892,Geocode,PointAddress,0,2,0,Closed UST(s),"Developed, Low Intensity",216,9,No,,,,,Yes,GA0650016_23068,GW,WL,031102010104,No,,4,,-82.75452892,31.046054380000044
GA9000307,CHEVRON #44160,I-75/CECIL-BARNEY RD,CECIL,,Georgia,31627,31.0460598,-83.3933616,Geocode,Postal,0,4,0,Closed UST(s),,,,,,,,,,,,,,,,4,,-83.3933616,31.046059800000023
GA9037036,FAMILY WORLD,RICHARDSON ST & EXIT 8 I-75,CECIL,,Georgia,31627,31.0460598,-83.3933616,Geocode,Postal,0,3,0,Closed UST(s),,,,,,,,,,,,,,,,4,,-83.3933616,31.046059800000023
GA920267,HAHIRA MIDDLE SCHOOL,EAST MAIN ST,HAHIRA,,Georgia,31632,31.046229,-83.39221575,Geocode,StreetName,1,1,0,Open UST(s),,,,,,,,,,,,,,,,4,,-83.39221575,31.04622900000004
GA9063061,JEKYLL HARBOR MARINA,1 HARBOR RD,JEKYLL ISLAND,,Georgia,31527,31.04638231,-81.4208813,Geocode,PointAddress,2,0,0,Open UST(s),Non-Developed,0,0,No,,,,,No,,,,,Yes,,4,,-81.4208813,31.04638231000007
GA630106,JEKYLL ISLAND FINA,BEN FORTSON PKWY,JEKYLL ISLAND,,Georgia,31527,31.04737342,-81.41742931,Geocode,StreetName,0,6,0,Closed UST(s),,,,,,,,,,,,,,,,4,,-81.41742931,31.047373420000042
GA9063011,JEKYLL ISLAND/PATROL & WELCOME C,BEN FORTSON PKWY,JEKYLL ISLAND,,Georgia,31527,31.04737342,-81.41742931,Geocode,StreetName,0,3,0,Closed UST(s),,,,,,,,,,,,,,,,4,,-81.41742931,31.047373420000042
GA860001,B & KS COUNTRYSIDE GENERAL STORE,HWY 122 & RIVER RD,LAKELAND,,Georgia,31635,31.047453,-83.0354445,Geocode,StreetInt,0,3,0,Closed UST(s),Non-Developed,11,6,No,,,,,No,,,,,No,,4,,-83.0354445,31.047453000000075
GA1250011,GA DOT #10438/DONALSONVILLE MAIN,CRAWFORD ST,DONALSONVILLE,,Georgia,39845,31.04745677,-84.88841296,Geocode,StreetName,0,5,0,Closed UST(s),,,,,,,,,,,,,,,,4,,-84.88841296,31.047456770000053
GA10001935,FLASH FOODS #2,50 BEN FORTSON PKWY,JEKYLL ISLAND,,Georgia,31527,31.04756637,-81.41491947,Geocode,StreetAddress,3,0,0,Open UST(s),Non-Developed,0,0,No,,,,,No,,,,,No,,4,,-81.41491947,31.047566370000027
GA630110,FAA BRUNSWICK,GA HWY 50 JEKYLL CAUSEWAY,BRUNSWICK,,Georgia,31520,31.04756637,-81.41491947,Geocode,StreetAddress,0,1,0,Closed UST(s),Non-Developed,0,0,No,,,,,No,,,,,No,,4,,-81.41491947,31.047566370000027
GA1360140,GAUTHIER GRO,GA HWY 3,MEIGS,,Georgia,31765,31.04763295,-84.07701611,Geocode,StreetName,0,2,0,Closed UST(s),,,,,,,,,,,,,,,,4,,-84.07701611,31.047632950000036
GA4200028,TARBORO MERCANTILE,RFD BOX 26,WHITE OAK,,Georgia,31568,31.0488284,-81.7339813,Geocode,Postal,0,3,0,Closed UST(s),,,,,,,,,,,,,,,,4,,-81.7339813,31.048828400000048
GA9125008,QUICK & HANDY,706 NORTH WILEY,DONALSONVILLE,,Georgia,39845,31.04893717,-84.88018028,Geocode,StreetAddress,2,0,1,Open UST(s),"Developed, Open Space",208,7,No,,,,,Yes,GA2530000_9084,GW,WL,031300100701,No,,4,,-84.88018028,31.048937170000045
GA1250021,PROLINE OIL COMPANY,HWY 84,DONALSONVILLE,,Georgia,39845,31.04966903,-84.89825858,Geocode,StreetName,0,4,0,Closed UST(s),,,,,,,,,,,,,,,,4,,-84.89825858,31.049669030000075
GA1250007,DONALSONVILLE HOSPITAL INC,102 HOSPITAL CIR,DONALSONVILLE,,Georgia,39845,31.05149576,-84.8812451,Geocode,StreetName,0,1,0,Closed UST(s),,,,,,,,,,,,,,,,4,,-84.8812451,31.051495760000023
GA9033195,Dobbins AFB,1670 PERRY ST/BLDG B-829/DOB-52,DOBBINS ARB,,Georgia,30069,31.0563897,-83.66094414,Geocode,StreetAddress,1,0,0,Open UST(s),Non-Developed,4,1,No,,,,,No,,,,,No,,4,,-83.66094414,31.056389700000068
GA9125003,SEMINOLE PEANUT CO CARGILL INC,US HWY 84 EAST,DONALSONVILLE,,Georgia,39845,31.06104388,-84.92712386,Geocode,StreetName,0,1,0,Closed UST(s),,,,,,,,,,,,,,,,4,,-84.92712386,31.061043880000057
GA10000863,SO GA MOTOSPORTS PARK,2521 HWY 41 N,CECIL,,Georgia,31627,31.06242488,-83.39427096,Geocode,PointAddress,0,0,6,Open UST(s),Non-Developed,1,0,No,,,,,Yes,GA0750001_17269,GW,WL,031102030403,No,,4,,-83.39427096,31.062424880000037
GA9063010,JEKYLL ISLAND/NEW MAINTENANCE AR,NEW MAINTENANCE AREA,JEKYLL ISLAND,,Georgia,31527,31.06252072,-81.41902617,Geocode,StreetName,2,2,0,Open UST(s),,,,,,,,,,,,,,,,4,,-81.41902617,31.062520720000066
GA9035030,BROCKS ONE STOP,2471 GEORGIA HWY 33 S,MOULTRIE,,Georgia,31768,31.06275094,-83.76507471,Geocode,StreetAddress,0,2,0,Closed UST(s),Non-Developed,19,7,No,,,,,No,,,,,No,,4,,-83.76507471,31.062750940000058
GA650041,AT&T,PHELAM/UNION HILL RD,MEIGS,,Georgia,31765,31.06606203,-84.12992928,Geocode,StreetName,0,2,0,Closed UST(s),,,,,,,,,,,,,,,,4,,-84.12992928,31.06606203000007
GA9063052,BELLSOUTH TELECOMMUNICATIONS INC,320 CAPTAIN WYLLY RD,JEKYLL ISLAND,,Georgia,31527,31.06842667,-81.41536235,Geocode,PointAddress,0,1,0,Closed UST(s),"Developed, Open Space",24,5,No,,,,,No,,,,,No,,4,,-81.41536235,31.068426670000065
GA350127,ALLTEL GEORGIA INC,MOULTRIE GA HWY 33,BERLIN,,Georgia,31722,31.0685865,-83.6237079,Geocode,Postal,0,1,0,Closed UST(s),,,,,,,,,,,,,,,,4,,-83.6237079,31.068586500000038
GA4100026,R K FOOD MART,405 PATTEN AVE,RAY CITY,,Georgia,31645,31.06901201,-83.19800663,Geocode,StreetAddress,2,0,0,Open UST(s),Non-Developed,169,54,No,,,,,Yes,GA1730016_18613,GW,WL,031102030301,No,,4,,-83.19800663,31.06901201000005
GA350122,BERLIN GROCERY & MARKET,ASHLEY ST,BERLIN,,Georgia,31721,31.06907829,-83.62233307,Geocode,StreetName,0,2,0,Closed UST(s),,,,,,,,,,,,,,,,4,,-83.62233307,31.06907829000005
GA1360156,MEIGS FOOD MART,3016 E MARSHALL & CHURCH ST,MEIGS,,Georgia,31765,31.071438,-84.08862,Geocode,StreetInt,2,0,1,Open UST(s),"Developed, Open Space",327,40,No,,,,,No,,,,,No,,4,,-84.08862,31.071438000000057
GA9125019,BUDDYS GROCERIES,3825 HWY 84,DONALSONVILLE,,Georgia,39845,31.07175321,-84.95257108,Geocode,StreetAddress,1,0,0,Open UST(s),"Developed, Low Intensity",6,4,No,,,,,No,,,,,No,,4,,-84.95257108,31.071753210000054
GA9063145,JEKYLL ISLAND,TOWER 4  SOUTH END OF ISLAND,JEKYLL ISLAND,,Georgia,31527,31.0729,-81.4074,Geocode,Postal,1,1,0,Open UST(s),,,,,,,,,,,,,,,,4,,-81.4074,31.07290000000006
GA9063146,JEKYLL ISLAND,TOWER 3  NORTH END OF ISLAND,JEKYLL ISLAND,,Georgia,31527,31.0729,-81.4074,Geocode,Postal,1,1,0,Open UST(s),,,,,,,,,,,,,,,,4,,-81.4074,31.07290000000006
GA9000381,JEKYLL ISLAND/MARINA,4111 KNIGHT ST,JEKYLL ISLAND,,Georgia,31527,31.0729,-81.4074,Geocode,Postal,0,5,0,Closed UST(s),,,,,,,,,,,,,,,,4,,-81.4074,31.07290000000006
GA9020003,LITTLE CUMBERLAND ISLAND HOME OW,LITTLE CUMBERLAND ISLAND,JEKYLL ISLAND,,Georgia,31527,31.0729,-81.4074,Geocode,Postal,0,2,0,Closed UST(s),,,,,,,,,,,,,,,,4,,-81.4074,31.07290000000006
GA9063008,JEKYLL ISLAND/AIRPORT,AIRPORT,JEKYLL ISLAND,,Georgia,31527,31.0729,-81.4074,Geocode,Postal,0,2,0,Closed UST(s),,,,,,,,,,,,,,,,4,,-81.4074,31.07290000000006
GA9063009,JEKYLL ISLAND/CHRISTMAS SHOP,CHRISTMAS SHOP,JEKYLL ISLAND,,Georgia,31527,31.0729,-81.4074,Geocode,Postal,0,1,0,Closed UST(s),,,,,,,,,,,,,,,,4,,-81.4074,31.07290000000006
GA9063013,JEKYLL ISLAND/VEHICLE MAINT SHOP,VEHICLE MAINT SHOP,JEKYLL ISLAND,,Georgia,31527,31.0729,-81.4074,Geocode,Postal,0,3,0,Closed UST(s),,,,,,,,,,,,,,,,4,,-81.4074,31.07290000000006
GA9136039,ADENS MINIT MARKET #50,3709 E DEPOT ST,MEIGS,,Georgia,31765,31.07303002,-84.08854138,Geocode,StreetAddress,2,0,0,Open UST(s),"Developed, Open Space",324,39,No,,,,,No,,,,,No,,4,,-84.08854138,31.073030020000033
GA350053,SOUTH GA DIS GRO DIPA FOOD MART,5858 HWY 133 S & ASHLEY ST,BERLIN,,Georgia,31722,31.073643,-83.6220105,Geocode,StreetInt,2,0,0,Open UST(s),Non-Developed,118,22,No,,,,,Yes,GA0710000_5390,GW,WL,031102030503,No,,4,,-83.6220105,31.07364300000006
GA320018,ARGYLE FOOD MART,US HWY 84 & JAMESTOWN RD,ARGYLE,,Georgia,31623,31.074255,-82.6487145,Geocode,StreetInt,2,0,0,Open UST(s),"Developed, Low Intensity",82,30,No,,,,,Yes,GA0650013_22923,GW,WL,031102010104,No,,4,,-82.6487145,31.07425500000005
GA1360095,MEIGS STATION,DEPOT ST,MEIGS,,Georgia,31728,31.07437458,-84.08522602,Geocode,StreetName,0,4,0,Closed UST(s),,,,,,,,,,,,,,,,4,,-84.08522602,31.07437458000004
GA9032010,ARNOLDS GAS & GROCERY,US HWY 84,ARGYLE,,Georgia,31623,31.07463717,-82.64765682,Geocode,StreetName,0,2,0,Closed UST(s),,,,,,,,,,,,,,,,4,,-82.64765682,31.074637170000074
GA10002331,UNKNOWN,MAIN STREET AND PATTON AVENUE,RAY CITY,,Georgia,31645,31.074696,-83.1996315,Geocode,StreetInt,0,1,0,Closed UST(s),"Developed, Low Intensity",320,83,No,,,,,Yes,GA0190014_4213,GW,WL,031102030301,No,,4,,-83.1996315,31.074696000000074
GA9010009,RAY CITY SERVICE STATION,701 MAIN ST,RAY CITY,,Georgia,31645,31.07503457,-83.19708221,Geocode,StreetAddress,0,5,0,Closed UST(s),"Developed, Low Intensity",390,96,No,,,,,Yes,GA0190014_4213,GW,WL,031102030301,No,,4,,-83.19708221,31.07503457000007
GA4100027,ONE STOP 5,925 PATTEN AVE,RAY CITY,,Georgia,31645,31.0754222,-83.20054579,Geocode,PointAddress,4,0,0,Open UST(s),"Developed, Low Intensity",326,79,No,,,,,Yes,GA0190003_4208,GW,WL,031102030301,No,,4,,-83.20054579,31.075422200000048
GA10000129,COUNTY LINE AUTO PARTS LLC,5129 VADA RD,CLIMAX,,Georgia,39834,31.07550517,-84.41376485,Geocode,StreetAddress,3,0,0,Open UST(s),Non-Developed,7,4,No,,,,,No,,,,,No,,4,,-84.41376485,31.075505170000042
GA9136062,TRIANGLE GROCERY,7461 E MARSHAL STREET,MEIGS,,Georgia,31765,31.07558289,-84.07849568,Geocode,StreetAddress,0,3,0,Closed UST(s),"Developed, Open Space",17,4,No,,,,,No,,,,,No,,4,,-84.07849568,31.075582890000078
GA9100029,SPRING CREEK GROCERY,943 WHITE BRIDGE RD,COLQUITT,,Georgia,39837,31.07820142,-84.71050716,Geocode,StreetAddress,0,2,0,Closed UST(s),Non-Developed,4,1,No,,,,,No,,,,,No,,4,,-84.71050716,31.078201420000028
GA1010024,MILLERS GROCERY,8125 COUNTY LINE RD,PELHAM,,Georgia,31779,31.07891441,-84.31878764,Geocode,StreetAddress,0,4,0,Closed UST(s),Non-Developed,5,2,No,,,,,No,,,,,No,,4,,-84.31878764,31.07891441000004
GA1010011,IKE GODWIN GROCERY INC,7273 COUNTYLINE RD,PELHAM,,Georgia,31779,31.07895652,-84.28800053,Geocode,PointAddress,3,3,0,Open UST(s),Non-Developed,10,3,No,,,,,No,,,,,No,,4,,-84.28800053,31.078956520000077
GA9100017,CIRCLE C FARMS INC,2100 WHITES BRIDGE RD,COLQUITT,,Georgia,39837,31.07916522,-84.60889094,Geocode,StreetAddress,0,1,0,Closed UST(s),Non-Developed,1,1,No,,,,,No,,,,,No,,4,,-84.60889094,31.07916522000005
GA9101026,ONE STOP,29 HWY 97,CAMILLA,,Georgia,31730,31.07975467,-84.41355357,Geocode,PointAddress,3,0,0,Open UST(s),Non-Developed,6,3,No,,,,,No,,,,,No,,4,,-84.41355357,31.079754670000057
GA9100023,UNKNOWN,1826 HWY 27 S,COLQUITT,,Georgia,39837,31.0797686,-84.67239423,Geocode,StreetAddress,0,1,0,Closed UST(s),Non-Developed,9,4,No,,,,,No,,,,,No,,4,,-84.67239423,31.07976860000008
GA1010080,PELHAM PHOSPHATE,RAILROAD ST,PELHAM,,Georgia,31779,31.08022844,-84.0968827,Geocode,StreetName,0,2,0,Closed UST(s),,,,,,,,,,,,,,,,4,,-84.0968827,31.08022844000004
GA1010027,FRED L BENTLEY,3060 SPENCE RD,PELHAM,,Georgia,31779,31.08051092,-84.15968361,Geocode,StreetAddress,0,4,0,Closed UST(s),Non-Developed,16,2,No,,,,,No,,,,,No,,4,,-84.15968361,31.08051092000005
GA350089,KAMAL FOOD MART,5448 HWY 133,BERLIN,,Georgia,31722,31.08079663,-83.632573,Geocode,StreetAddress,2,3,0,Open UST(s),Non-Developed,6,1,No,,,,,Yes,GA0710000_5390,GW,WL,031102030503,No,,4,,-83.632573,31.080796630000066
GA10000498,SUNSHINE ACRES MOBILE HOME PARK,2567 CAULIE HARRIS RD,ADEL,,Georgia,31620,31.08537568,-83.37355736,Geocode,StreetAddress,0,0,2,Open UST(s),Non-Developed,24,6,No,,,,,Yes,GA0750001_17269,GW,WL,031102030403,No,,4,,-83.37355736,31.085375680000027
GA10000300,DARRELL BENNETT PINE VALLEY CASH & CARRY,3595 HWY 76,ADEL,,Georgia,31620,31.08624301,-83.47600745,Geocode,StreetAddress,2,0,0,Open UST(s),Non-Developed,23,9,No,,,,,No,,,,,No,,4,,-83.47600745,31.086243010000032
GA350020,MOULTRIE MUNICIPAL AIRPORT,189 AIRPORT DR,MOULTRIE,,Georgia,31768,31.08653117,-83.80824139,Geocode,StreetAddress,2,2,0,Open UST(s),"Developed, Open Space",26,6,No,,,,,No,,,,,No,,4,,-83.80824139,31.086531170000058
GA10002030,PROPERTY OF SEAN MCCALL,5102 PEARSON HIGHWAY,HOMERVILLE,,Georgia,31634,31.0874246,-82.80472823,Geocode,StreetAddress,0,1,0,Closed UST(s),"Developed, Low Intensity",10,2,No,,,,,No,,,,,No,,4,,-82.80472823,31.087424600000077
GA9101006,FLASH FOODS #281,317 US HWY 19 N,PELHAM,,Georgia,31779,31.08833013,-84.08959504,Geocode,StreetAddress,4,0,0,Open UST(s),Non-Developed,6,1,No,,,,,No,,,,,No,,4,,-84.08959504,31.08833013000003
GA9035025,BRYANS CASH & CARRY,1704 HWY 27 S,COLQUITT,,Georgia,39837,31.09063068,-84.67859866,Geocode,PointAddress,0,2,0,Closed UST(s),Non-Developed,11,4,No,,,,,No,,,,,Yes,,4,,-84.67859866,31.09063068000006
GA4200022,OM FOOD MART,US HWY 17 & GA HWY 110,WAVERLY,,Georgia,31565,31.093974,-81.7258545,Geocode,StreetInt,3,3,0,Open UST(s),"Developed, Low Intensity",37,17,No,,,,,No,,,,,No,,4,,-81.7258545,31.09397400000006
GA9020106,GREGORY & BARRY REED DBA REED BR,7020 US HWY 17,WAVERLY,,Georgia,31565,31.09484372,-81.72574459,Geocode,StreetAddress,0,3,0,Closed UST(s),"Developed, Open Space",38,18,No,,,,,No,,,,,No,,4,,-81.72574459,31.09484372000003
GA9020088,FRIENDLY EXPRESS #78,I-95 EXIT 26 DOVER BLUFF RD,WAVERLY,,Georgia,31565,31.0968,-81.60099,Geocode,POI,4,0,0,Open UST(s),,,,,,,,,,,,,,,,4,,-81.60099,31.09680000000003
GA1480116,AMMONS GAS & GROC,HWY 84,MANOR,,Georgia,31550,31.09865854,-82.58894953,Geocode,StreetName,0,2,0,Closed UST(s),,,,,,,,,,,,,,,,4,,-82.58894953,31.09865854000003
GA1480117,ROWELLS GAS & GROC,US HWY 84,MANOR,,Georgia,31550,31.09865854,-82.58894953,Geocode,StreetName,0,4,0,Closed UST(s),,,,,,,,,,,,,,,,4,,-82.58894953,31.09865854000003
GA9049044,SHIV OF JAKIN INC,1798 HWY 84 E,JAKIN,,Georgia,31761,31.09870418,-85.00674233,Geocode,StreetName,4,0,0,Open UST(s),,,,,,,,,,,,,,,,4,,-85.00674233,31.098704180000027
GA9000190,RIVERTURN GROCERY,GA HWY 91 SOUTH/MALONE HWY,DONALSONVILLE,,Georgia,39845,31.09893001,-84.85867199,Geocode,StreetName,0,1,0,Closed UST(s),,,,,,,,,,,,,,,,4,,-84.85867199,31.09893001000006
GA9100004,ABANDONED SVC STA,GA HWY 91 SOUTH\RT 1,DONALSONVILLE,,Georgia,39845,31.09893001,-84.85867199,Geocode,StreetName,0,2,0,Closed UST(s),,,,,,,,,,,,,,,,4,,-84.85867199,31.09893001000006
GA10002611,FORMER RAWL GASOLINE STATION,HWY 17 & MOSSY OAK TRAIL,WAVERLY,,Georgia,31565,31.103145,-81.6925005,Geocode,StreetInt,0,0,1,Open UST(s),Non-Developed,4,2,No,,,,,Yes,GA0390068_23221,GW,WL,030702030301,No,,4,,-81.6925005,31.10314500000004
GA1480150,SOLAR FOOD,6349 VALDOSTA HWY,MANOR,,Georgia,31550,31.10330506,-82.57596582,Geocode,PointAddress,4,0,0,Open UST(s),"Developed, Low Intensity",57,6,No,,,,,Yes,GA2990000_22878,GW,WL,031102010102,No,,4,,-82.57596582,31.103305060000025
GA350087,C&M GROCERY,QUITMAN HWY/RT 5,MOULTRIE,,Georgia,31768,31.10336,-83.66639645,Geocode,StreetName,0,3,0,Closed UST(s),,,,,,,,,,,,,,,,4,,-83.66639645,31.103360000000066
GA350088,DON & LUCY ETHRIDGE,COUNTY ST/QUITMAN HWY,MOULTRIE,,Georgia,31768,31.10336,-83.66639645,Geocode,StreetName,0,1,0,Closed UST(s),,,,,,,,,,,,,,,,4,,-83.66639645,31.103360000000066
GA9148035,MOORES COUNTRY STORE,6264 VALDOSTA HWY,MANOR,,Georgia,31550,31.1046635,-82.57142499,Geocode,PointAddress,3,3,0,Open UST(s),"Developed, Low Intensity",68,6,No,,,,,Yes,GA2990000_22878,GW,WL,031102010102,No,,4,,-82.57142499,31.104663500000072
GA10002344,GDOT FACILITY EDS00-0084-00(023) 422120 (PARCEL 86),6236 VALDOSTA HIGHWAY,MANOR,,Georgia,31550,31.10537956,-82.56986234,Geocode,PointAddress,0,3,0,Closed UST(s),"Developed, Low Intensity",68,6,No,,,,,Yes,GA2990000_22878,GW,WL,031102010102,No,,4,,-82.56986234,31.105379560000074
GA1480077,WARE COUNTY MAGNET SCHOOL,4650 A MANOR-MILLWOOD RD,MANOR,,Georgia,31550,31.10548436,-82.57417038,Geocode,PointAddress,0,5,0,Closed UST(s),"Developed, Open Space",68,6,No,,,,,Yes,GA2990000_22878,GW,WL,031102010102,No,,4,,-82.57417038,31.105484360000048
GA9100001,FERRELLGAS INC,HWY 27 SOUTH,COLQUITT,,Georgia,39837,31.10946218,-84.68915029,Geocode,StreetName,0,1,0,Closed UST(s),,,,,,,,,,,,,,,,4,,-84.68915029,31.109462180000037
GA9100019,DANNY CARTER,1211 BABCOCK RD,COLQUITT,,Georgia,39837,31.1106142,-84.58421076,Geocode,StreetAddress,0,2,0,Closed UST(s),Non-Developed,2,1,No,,,,,No,,,,,No,,4,,-84.58421076,31.110614200000043
GA9100033,VANN FARMS INC,970 BABCOCK RD,COLQUITT,,Georgia,39837,31.11118448,-84.60586473,Geocode,PointAddress,0,2,0,Closed UST(s),Non-Developed,2,1,No,,,,,No,,,,,No,,4,,-84.60586473,31.111184480000077
GA350076,CENTER HILL GROCERY,RT 4 CORNER OF ROCKY FORD RD &,MOULTRIE,,Georgia,31768,31.11204972,-83.89878271,Geocode,StreetName,0,2,0,Closed UST(s),,,,,,,,,,,,,,,,4,,-83.89878271,31.112049720000073
GA1010044,DARWOOD MANUFACTURING CO,620 WEST RAILROAD ST,PELHAM,,Georgia,31779,31.11369816,-84.14873156,Geocode,StreetAddress,0,1,0,Closed UST(s),Non-Developed,50,3,No,,,,,Yes,GA2050003_8243,GW,WL,031200020503,No,,4,,-84.14873156,31.11369816000007
GA10001147,BP STATION,I-75 EXIT 37,ADEL,,Georgia,31620,31.11419289,-83.42898142,Geocode,StreetName,0,3,0,Closed UST(s),,,,,,,,,,,,,,,,4,,-83.42898142,31.114192890000027
GA9035046,SUSIE QS #90,135 US HWY 319 S,MOULTRIE,,Georgia,31768,31.11450482,-83.78555802,Geocode,PointAddress,3,0,0,Open UST(s),"Developed, Medium Intensity",30,4,No,,,,,Yes,GA0710089_5472,GW,WL,031102030502,No,,4,,-83.78555802,31.114504820000036
GA9037033,ADEL STARTER,RTE 2 BOX 394 B-3,ADEL,,Georgia,31620,31.11489834,-83.4279832,Geocode,StreetAddress,0,4,0,Closed UST(s),"Developed, Open Space",92,1,No,,,,,Yes,GA0750000_5528,GW,WL,031102040501,No,,4,,-83.4279832,31.114898340000025
GA370026,J&R CASH & CARRY/W J STANLEY,RT 2 BOX 475 A,ADEL,,Georgia,31620,31.115142,-83.42777475,Geocode,StreetName,0,2,0,Closed UST(s),,,,,,,,,,,,,,,,4,,-83.42777475,31.11514200000005
GA10001301,DREKO CONVENIENCE STORE,645 BARROW AVE,PELHAM,,Georgia,31779,31.1163315,-84.16215452,Geocode,StreetAddress,0,0,2,Open UST(s),"Developed, Open Space",181,25,No,,,,,No,,,,,No,,4,,-84.16215452,31.116331500000058
GA920102,RADNEY PLUMBING & HEATING INC,401 EAST HILL AVE,VALDOSTA,,Georgia,31601,30.83241291,-83.27452295,Geocode,PointAddress,0,1,0,Closed UST(s),"Developed, High Intensity",537,0,No,,,,,No,,,,,No,,4,,-83.27452295,30.832412910000073
GA10002406,DOLLAR GENERAL #738,398 BARROW AVE,PELHAM,,Georgia,31779,31.12026884,-84.15748095,Geocode,PointAddress,3,0,0,Open UST(s),"Developed, Open Space",498,54,No,,,,,Yes,GA2050003_8243,GW,WL,031200020503,No,,4,,-84.15748095,31.12026884000005
GA4240027,FOLKSTON AMOCO,LOVE & SECOND ST,FOLKSTON,,Georgia,31537,30.832686,-82.006407,Geocode,StreetInt,0,5,0,Closed UST(s),"Developed, Medium Intensity",146,8,No,,,,,Yes,GA0490000_4794,GW,WL,030702040802,No,,4,,-82.006407,30.832686000000024
GA1010060,HERCULES BUMPERS INC,US HWY 19 NORTH,PELHAM,,Georgia,31779,31.12096377,-84.13970844,Geocode,StreetName,0,3,0,Closed UST(s),,,,,,,,,,,,,,,,4,,-84.13970844,31.12096377000006
GA9063095,INTERNATIONAL AUTO PROCESSING,#1 JOE FRANK HARRIS BLVD,BRUNSWICK,,Georgia,31523,31.12096461,-81.53911313,Geocode,PointAddress,0,3,0,Closed UST(s),"Developed, Medium Intensity",0,0,No,,,,,Yes,GA1270016_22665,GW,WL,030702030201,No,,4,,-81.53911313,31.120964610000044
GA1010045,COATES AMERICA/COATS & CLARK INC,238 MILL ST,PELHAM,,Georgia,31779,31.12105185,-84.14828947,Geocode,StreetAddress,0,2,0,Closed UST(s),"Developed, Open Space",410,52,No,,,,,Yes,GA2050003_8244,GW,WL,031200020404,No,,4,,-84.14828947,31.12105185000007
GA10001358,QUICK GAS #8,1006 ELM ST,ADEL,,Georgia,31620,31.12122585,-83.43739425,Geocode,PointAddress,3,0,0,Open UST(s),"Developed, Low Intensity",52,17,No,,,,,Yes,GA0750000_5528,GW,WL,031102040501,No,,4,,-83.43739425,31.12122585000003
GA9063047,BMW OF NORTH AMERICA/VEHICLE PRE,106 JOE FRANK HARRIS BLVD,BRUNSWICK,,Georgia,31520,31.12247661,-81.53899002,Geocode,StreetAddress,0,3,0,Closed UST(s),"Developed, High Intensity",0,0,No,,,,,No,,,,,No,,4,,-81.53899002,31.122476610000035
GA10000453,LIBERTY 7,100 OLD QUITMAN HWY,ADEL,,Georgia,31620,31.12250666,-83.41861007,Geocode,PointAddress,3,0,0,Open UST(s),"Developed, Medium Intensity",155,17,No,,,,,Yes,GA0750000_5527,GW,WL,031102030401,No,,4,,-83.41861007,31.122506660000056
GA10001316,HILL STREET BOOZE,414 EAST HILL AVENUE,VALDOSTA,,Georgia,31601,30.8328341,-83.27354308,Geocode,PointAddress,0,2,0,Closed UST(s),"Developed, High Intensity",464,0,No,,,,,No,,,,,No,,4,,-83.27354308,30.83283410000007
GA1010067,PELHAM CONVENIENCE MART,174 BARROW AVE,PELHAM,,Georgia,31779,31.12288429,-84.15472978,Geocode,StreetAddressExt,0,4,0,Closed UST(s),,,,,,,,,,,,,,,,4,,-84.15472978,31.12288429000006
GA9000709,SHOP N GO,408 S BROAD ST,THOMASVILLE,,Georgia,31792,30.83285598,-83.975985,Geocode,PointAddress,3,3,0,Open UST(s),"Developed, Open Space",203,0,No,,,,,Yes,GA2750005_9358,GW,WL,031200020601,No,,4,,-83.975985,30.832855980000033
GA1010056,BUTLER GROCERIES,173 BARROW AVE,PELHAM,,Georgia,31779,31.12297678,-84.15481271,Geocode,StreetAddressExt,0,3,0,Closed UST(s),,,,,,,,,,,,,,,,4,,-84.15481271,31.122976780000045
GA9136032,SOUTHERN SAND CO,1115 WEST CLAY ST,THOMASVILLE,,Georgia,31792,30.83286093,-84.00207772,Geocode,PointAddress,0,2,0,Closed UST(s),"Developed, Medium Intensity",0,0,No,,,,,Yes,GA2750005_9358,GW,WL,031200020601,No,,4,,-84.00207772,30.832860930000038
GA9092263,CITY OF VALDOSTA (WATER & SEWER,301 A N PATTERSON ST,VALDOSTA,,Georgia,31601,30.83294183,-83.27993587,Geocode,PointAddress,0,4,0,Closed UST(s),"Developed, High Intensity",327,0,No,,,,,Yes,GA1850064_7784,GW,WL,031102030404,No,,4,,-83.27993587,30.83294183000004
GA9101048,FORMER PLUNDER HOUSE,264 E RAILROAD ST,PELHAM,,Georgia,31779,31.12322639,-84.15046171,Geocode,StreetAddress,0,3,0,Closed UST(s),"Developed, Low Intensity",468,50,No,,,,,Yes,GA2050003_8244,GW,WL,031200020404,No,,4,,-84.15046171,31.12322639000007
GA9136087,USFILTER,1828 METCALF AVE,THOMASVILLE,,Georgia,31792,30.83304763,-83.95181211,Geocode,PointAddress,0,1,0,Closed UST(s),"Developed, High Intensity",249,2,No,,,,,No,,,,,No,,4,,-83.95181211,30.833047630000067
GA490030,JAKIN DISCOUNT,US HWY 84,JAKIN,,Georgia,31761,31.12324493,-85.05506835,Geocode,StreetName,0,2,0,Closed UST(s),,,,,,,,,,,,,,,,4,,-85.05506835,31.123244930000055
GA1360086,PACE MART,504 W JACKSON ST,THOMASVILLE,,Georgia,31792,30.83307385,-83.98377064,Geocode,PointAddress,3,0,0,Open UST(s),"Developed, Medium Intensity",137,0,No,,,,,Yes,GA2750005_9358,GW,WL,031200020601,No,,4,,-83.98377064,30.833073850000062
GA1010077,ADENS MINIT MARKET #52,2067 US HWY 19 S.E.,PELHAM,,Georgia,31779,31.12341598,-84.14027176,Geocode,StreetAddress,3,0,0,Open UST(s),"Developed, Low Intensity",211,36,No,,,,,Yes,GA2050003_8244,GW,WL,031200020404,No,,4,,-84.14027176,31.12341598000006
GA9136073,JOAN ART MILLS MFG FACILITY,US HWY 19 SOUTH,THOMASVILLE,,Georgia,31792,30.83312772,-83.94309643,Geocode,StreetName,0,2,0,Closed UST(s),,,,,,,,,,,,,,,,4,,-83.94309643,30.83312772000005
GA9101025,WEST SERVICE STATION,246 CHURCH ST SW,PELHAM,,Georgia,31779,31.12346729,-84.15468925,Geocode,PointAddress,0,0,4,Open UST(s),"Developed, Low Intensity",411,20,No,,,,,Yes,GA2050003_8243,GW,WL,031200020503,No,,4,,-84.15468925,31.123467290000065
GA10001371,BASSFORD AUTOMOTIVE,331 NORTH ASHLEY STREET,VALDOSTA,,Georgia,31601,30.83355377,-83.27910893,Geocode,StreetAddress,0,5,0,Closed UST(s),"Developed, High Intensity",405,0,No,,,,,Yes,GA1850064_7784,GW,WL,031102030404,No,,4,,-83.27910893,30.833553770000037
GA9101017,C & P PACKAGE,233 WEST RAILROAD ST,PELHAM,,Georgia,31779,31.12375306,-84.1519651,Geocode,PointAddress,0,3,0,Closed UST(s),"Developed, High Intensity",463,42,No,,,,,Yes,GA2050003_8243,GW,WL,031200020503,No,,4,,-84.1519651,31.12375306000007
GA920144,#906 AB FOODS,607 E HILL AVE,VALDOSTA,,Georgia,31601,30.83359929,-83.27125375,Geocode,PointAddress,3,0,0,Open UST(s),"Developed, Medium Intensity",489,0,No,,,,,No,,,,,No,,4,,-83.27125375,30.833599290000052
GA1010018,PELHAM HIGH SCHOOL,BURUM ST,PELHAM,,Georgia,31779,31.12376216,-84.15980206,Geocode,StreetName,0,1,0,Closed UST(s),,,,,,,,,,,,,,,,4,,-84.15980206,31.12376216000007
GA1480045,GFC WARE CO UNIT,5003 JACKSONVILLE HWY,WAYCROSS,,Georgia,31503,31.12387274,-82.2598485,Geocode,StreetAddress,2,4,0,Open UST(s),Non-Developed,1,0,No,,,,,No,,,,,No,,4,,-82.2598485,31.123872740000024
GA920007,M K  #5,600 E HILL AVE,VALDOSTA,,Georgia,31601,30.83360871,-83.27140069,Geocode,PointAddress,3,0,0,Open UST(s),"Developed, Medium Intensity",497,0,No,,,,,No,,,,,No,,4,,-83.27140069,30.833608710000078
GA10002482,COOK COUNTY,3255 COUNTY FARM RD,ADEL,,Georgia,31620,31.12524666,-83.44380733,Geocode,StreetAddress,4,0,0,Open UST(s),"Developed, Open Space",86,30,No,,,,,No,,,,,No,,4,,-83.44380733,31.125246660000073
GA920035,FEINBERG'S EXXON,505 N OAK ST,VALDOSTA,,Georgia,31601,30.83375323,-83.28358662,Geocode,PointAddress,0,3,0,Closed UST(s),"Developed, High Intensity",421,3,No,,,,,Yes,GA1850064_7784,GW,WL,031102030404,No,,4,,-83.28358662,30.83375323000007
GA1010020,WHOLESALE TIRE,145 MATHEWSON AVE,PELHAM,,Georgia,31779,31.12533179,-84.1536994,Geocode,StreetAddress,0,3,2,Open UST(s),"Developed, High Intensity",345,24,No,,,,,Yes,GA2050003_8243,GW,WL,031200020503,No,,4,,-84.1536994,31.125331790000075
GA9092029,LANGDALE FUEL CO,505 NORTH OAK ST,VALDOSTA,,Georgia,31601,30.83375323,-83.28358662,Geocode,PointAddress,0,3,0,Closed UST(s),"Developed, High Intensity",421,3,No,,,,,Yes,GA1850064_7784,GW,WL,031102030404,No,,4,,-83.28358662,30.83375323000007
GA10000559,COASTAL RESOURCES DIVISION,1 CONSERVATION WY,BRUNSWICK,,Georgia,31520,31.12533678,-81.47909374,Geocode,PointAddress,2,0,0,Open UST(s),Non-Developed,0,0,No,,,,,No,,,,,No,,4,,-81.47909374,31.125336780000055
GA9037013,WEYERHAEUSER,801 COOK STREET,ADEL,,Georgia,31620,31.12537754,-83.43136484,Geocode,PointAddress,0,1,0,Closed UST(s),"Developed, Medium Intensity",132,0,No,,,,,Yes,GA0750000_5528,GW,WL,031102040501,No,,4,,-83.43136484,31.125377540000045
GA350011,COLQUITT REGIONAL MEDICAL CENTER,3131 S MAIN,MOULTRIE,,Georgia,31768,31.12548623,-83.78319725,Geocode,StreetAddress,0,1,0,Closed UST(s),"Developed, Open Space",54,12,No,,,,,No,,,,,No,,4,,-83.78319725,31.125486230000035
GA9136037,PLANTATION PETROLEUM INC,402 S BROAD,THOMASVILLE,,Georgia,31792,30.83376374,-83.97682162,Geocode,PointAddress,4,4,0,Open UST(s),"Developed, Low Intensity",144,0,No,,,,,Yes,GA2750005_9358,GW,WL,031200020601,No,,4,,-83.97682162,30.83376374000005
GA9037010,ADEL STEEL INC,602 OR 601 ELM ST,ADEL,,Georgia,31620,31.12668986,-83.43354268,Geocode,PointAddress,0,1,0,Closed UST(s),"Developed, Medium Intensity",146,0,No,,,,,Yes,GA0750000_5528,GW,WL,031102040501,No,,4,,-83.43354268,31.126689860000056
GA920150,#903 (OAK ST FOODS),500 N OAK ST,VALDOSTA,,Georgia,31601,30.83381875,-83.28369139,Geocode,PointAddress,1,0,2,Open UST(s),"Developed, Medium Intensity",430,4,No,,,,,Yes,GA1850064_7784,GW,WL,031102030404,No,,4,,-83.28369139,30.833818750000034
GA1010001,MITTNEHA LLC,110 CHURCH ST,PELHAM,,Georgia,31779,31.12717498,-84.15518143,Geocode,PointAddress,3,4,0,Open UST(s),"Developed, Low Intensity",288,19,No,,,,,Yes,GA2050003_8243,GW,WL,031200020503,No,,4,,-84.15518143,31.127174980000063
GA1360201,MASONS RENT ALL,611 HANSELL ST,THOMASVILLE,,Georgia,31792,30.83387461,-83.97193957,Geocode,PointAddress,0,1,0,Closed UST(s),"Developed, Low Intensity",269,0,No,,,,,Yes,GA2750005_9358,GW,WL,031200020601,No,,4,,-83.97193957,30.833874610000066
GA350062,US FOOD MART,3025 MAIN ST,MOULTRIE,,Georgia,31768,31.12744703,-83.78275278,Geocode,PointAddress,3,0,0,Open UST(s),"Developed, Low Intensity",95,14,No,,,,,No,,,,,No,,4,,-83.78275278,31.12744703000004
GA1360002,BALFOUR LUMBER CO INC,800 WEST CLAY ST,THOMASVILLE,,Georgia,31792,30.834,-83.99705947,Geocode,PointAddress,0,4,0,Closed UST(s),"Developed, High Intensity",41,0,No,,,,,Yes,GA2750005_9358,GW,WL,031200020601,No,,4,,-83.99705947,30.83400000000006
GA1010090,BST/PELHAM CO R2463,209 HAND AVE,PELHAM,,Georgia,31779,31.12745737,-84.15579436,Geocode,StreetAddress,0,1,0,Closed UST(s),"Developed, Low Intensity",296,21,No,,,,,Yes,GA2050003_8243,GW,WL,031200020503,No,,4,,-84.15579436,31.12745737000006
GA1360048,THOMASVILLE UTILITY DEPARTMEMT,411 W JACKSON ST,THOMASVILLE,,Georgia,31792,30.83406343,-83.98318593,Geocode,StreetAddress,0,3,0,Closed UST(s),"Developed, Medium Intensity",110,0,No,,,,,Yes,GA2750005_9358,GW,WL,031200020601,No,,4,,-83.98318593,30.83406343000007
GA1360110,ESTECH INC,900 WEST CLAY ST,THOMASVILLE,,Georgia,31792,30.83417074,-83.99641746,Geocode,StreetAddress,0,2,0,Closed UST(s),"Developed, High Intensity",49,0,No,,,,,Yes,GA2750005_9358,GW,WL,031200020601,No,,4,,-83.99641746,30.834170740000047
GA1010076,PACE MART,114 GREEN ST E,PELHAM,,Georgia,31779,31.12763451,-84.15152353,Geocode,PointAddress,3,0,0,Open UST(s),"Developed, Low Intensity",297,36,No,,,,,Yes,GA2050003_8244,GW,WL,031200020404,No,,4,,-84.15152353,31.127634510000064
GA9037026,KEYS PROPERTY,800 SOUTH HUTCHINSON AVE,ADEL,,Georgia,31620,31.12814565,-83.42027226,Geocode,PointAddress,0,6,0,Closed UST(s),"Developed, Low Intensity",275,4,No,,,,,Yes,GA0750000_5527,GW,WL,031102030401,No,,4,,-83.42027226,31.12814565000008
GA10000475,RaceWay #6722 - Valdosta,1406 N ST AUGUSTINE RD,VALDOSTA,,Georgia,31602,30.84712085,-83.33454499,Geocode,PointAddress,3,0,0,Open UST(s),"Developed, Medium Intensity",192,40,No,,,,,Yes,GA1850027_7741,GW,WL,031102030404,No,,4,,-83.33454499,30.847120850000067
GA9101049,PELHAM WAREHOUSE,122 N RAILROAD NE,PELHAM,,Georgia,31779,31.12822259,-84.15216808,Geocode,StreetAddress,0,2,0,Closed UST(s),"Developed, Medium Intensity",309,32,No,,,,,Yes,GA2050003_8244,GW,WL,031200020404,No,,4,,-84.15216808,31.128222590000064
GA1360083,HARDY OIL CO,500 METCALF AVE,THOMASVILLE,,Georgia,31799,30.83423254,-83.96558036,Geocode,PointAddress,0,1,0,Closed UST(s),"Developed, High Intensity",540,0,No,,,,,No,,,,,No,,4,,-83.96558036,30.834232540000073
GA9013008,FRIENDLY EXPRESS #97,HWY 301 S & KINGSBAY RD,NAHUNTA,,Georgia,31553,31.12824644,-81.99906222,Geocode,StreetName,3,0,0,Open UST(s),,,,,,,,,,,,,,,,4,,-81.99906222,31.128246440000055
GA920169,ALL-BRANDS VENDING CO,US 41 NORTH,VALDOSTA,,Georgia,31601,30.83435247,-83.2279,Geocode,StreetName,0,1,0,Closed UST(s),,,,,,,,,,,,,,,,4,,-83.2279,30.834352470000056
GA9037022,DEL COOK LUMBER COMPANY,WEST NINTH STREET,ADEL,,Georgia,31620,31.12891337,-83.42791578,Geocode,StreetName,0,12,0,Closed UST(s),,,,,,,,,,,,,,,,4,,-83.42791578,31.128913370000078
GA920103,RAYMOND DASHER,1750 CLAY RD,VALDOSTA,,Georgia,31601,30.83436182,-83.25168396,Geocode,PointAddress,0,1,0,Closed UST(s),"Developed, Low Intensity",13,2,No,,,,,Yes,GA1850282_7898,GW,WL,031102021001,No,,4,,-83.25168396,30.834361820000026
GA9037008,FAUSETT'S INC,518 SOUTH ELM ST,ADEL,,Georgia,31620,31.12902883,-83.43342261,Geocode,PointAddress,0,1,0,Closed UST(s),"Developed, Low Intensity",350,0,No,,,,,No,,,,,No,,4,,-83.43342261,31.12902883000004
GA9101011,AUTRY STATE PRISON INST,RTE 1 BOX 203,PELHAM,,Georgia,31779,31.1292443,-84.1525147,Geocode,Postal,2,3,0,Open UST(s),,,,,,,,,,,,,,,,4,,-84.1525147,31.12924430000004
GA9092011,FLASH FOODS #17,511 ST AUGUSTINE RD,VALDOSTA,,Georgia,31601,30.83445997,-83.31270428,Geocode,PointAddress,2,3,0,Open UST(s),"Developed, Medium Intensity",465,57,No,,,,,Yes,GA1850152_7846,GW,WL,031102030404,No,,4,,-83.31270428,30.83445997000007
GA1010040,W POWELL OIL & TIRE CO,226 EAST RR ST SE,PELHAM,,Georgia,31779,31.1292443,-84.1525147,Geocode,Postal,0,6,0,Closed UST(s),,,,,,,,,,,,,,,,4,,-84.1525147,31.12924430000004
GA9092213,AUTRY'S BP,400 N PATTERSON ST,VALDOSTA,,Georgia,31601,30.83460866,-83.28084218,Geocode,PointAddress,0,4,0,Closed UST(s),"Developed, High Intensity",369,0,No,,,,,Yes,GA1850064_7784,GW,WL,031102030404,No,,4,,-83.28084218,30.83460866000007
GA1010051,COLUMBIAN PEANUT CO,194 NELSON ST,PELHAM,,Georgia,31779,31.1295742,-84.15418612,Geocode,StreetAddress,0,1,0,Closed UST(s),"Developed, High Intensity",374,32,No,,,,,Yes,GA2050003_8242,GW,WL,031200020404,No,,4,,-84.15418612,31.129574200000036
GA920168,COPELAND PHARMACY,US 41 SOUTH,VALDOSTA,,Georgia,31601,30.83461813,-83.228103,Geocode,StreetName,0,1,0,Closed UST(s),,,,,,,,,,,,,,,,4,,-83.228103,30.834618130000024
GA9035009,SOUTHWEST PDC PROBATION DETENTIO,SOUTH VANDENBERG DR SPENCE FIELD,MOULTRIE,,Georgia,31768,31.12971482,-83.70978067,Geocode,StreetName,0,1,0,Closed UST(s),,,,,,,,,,,,,,,,4,,-83.70978067,31.12971482000006
GA9092256,AOC LIQUIDATORS/WHITE STAR,HWY 41 SOUTH,VALDOSTA,,Georgia,31601,30.83461813,-83.228103,Geocode,StreetName,0,5,0,Closed UST(s),,,,,,,,,,,,,,,,4,,-83.228103,30.834618130000024
GA350137,SUNSET COUNTRY CLUB,2900 S MAIN STREET,MOULTRIE,,Georgia,31768,31.1311896,-83.78191462,Geocode,StreetAddress,0,1,0,Closed UST(s),"Developed, Low Intensity",268,6,No,,,,,No,,,,,No,,4,,-83.78191462,31.131189600000027
GA920107,MASON GROCERY,RT 3 BOX 501,VALDOSTA,,Georgia,31603,30.83477,-83.28037,Geocode,Postal,0,2,0,Closed UST(s),,,,,,,,,,,,,,,,4,,-83.28037,30.83477000000005
GA9101044,GEORGIA & FLORIDA RAILROAD,230 RAILROAD ST NORTH,PELHAM,,Georgia,31779,31.13134853,-84.15264269,Geocode,StreetAddress,0,1,0,Closed UST(s),"Developed, Low Intensity",456,44,No,,,,,Yes,GA2050003_8242,GW,WL,031200020404,No,,4,,-84.15264269,31.131348530000025
GA9092162,CINN NEW ORLEANS & TEXAS PACIFIC,NO LOCATION GIVEN,VALDOSTA,,Georgia,31603,30.83477,-83.28037,Geocode,Postal,0,1,0,Closed UST(s),,,,,,,,,,,,,,,,4,,-83.28037,30.83477000000005
GA9101039,YUZ INVESTMENT LLC,240 GLAUSIER ST,PELHAM,,Georgia,31779,31.13152043,-84.14831814,Geocode,PointAddress,2,5,0,Open UST(s),"Developed, Medium Intensity",472,53,No,,,,,Yes,GA2050003_8242,GW,WL,031200020404,No,,4,,-84.14831814,31.131520430000023
GA10002612,WILSONS RADIATOR,347 W JACKSON STREET,THOMASVILLE,,Georgia,31792,30.8348081,-83.98298169,Geocode,PointAddress,0,4,0,Closed UST(s),"Developed, Medium Intensity",112,0,No,,,,,Yes,GA2750005_9358,GW,WL,031200020601,No,,4,,-83.98298169,30.834808100000032
GA9101004,LANGLEYS SERVICE STATION,233 GLAUSIER ST,PELHAM,,Georgia,31779,31.1315212,-84.1484082,Geocode,StreetAddress,0,4,0,Closed UST(s),"Developed, Medium Intensity",473,53,No,,,,,Yes,GA2050003_8242,GW,WL,031200020404,No,,4,,-84.1484082,31.131521200000066
GA9092278,ADVANCED RENTAL,5426 PERIMETER RD,VALDOSTA,,Georgia,31602,30.834837,-83.22813398,Geocode,PointAddress,0,0,3,Open UST(s),"Developed, Low Intensity",2,1,No,,,,,Yes,GA1850282_7898,GW,WL,031102021001,No,,4,,-83.22813398,30.83483700000005
GA9035047,MAULE AIR INC,2099 GA HWY 133 SOUTH,MOULTRIE,,Georgia,31768,31.13168619,-83.71588253,Geocode,PointAddress,0,2,1,Open UST(s),"Developed, Low Intensity",69,3,No,,,,,No,,,,,No,,4,,-83.71588253,31.13168619000004
GA1010074,QUICK MART #4,280 MARTIN LUTHER KING JR BLVD,PELHAM,,Georgia,31779,31.13171344,-84.16013877,Geocode,PointAddress,1,0,2,Open UST(s),"Developed, Low Intensity",574,57,No,,,,,No,,,,,No,,4,,-84.16013877,31.131713440000055
GA9136036,FLOWERS BAKERY,236 SOUTH MADISON,THOMASVILLE,,Georgia,31799,30.83484853,-83.97911336,Geocode,StreetAddress,0,3,0,Closed UST(s),"Developed, High Intensity",117,0,No,,,,,Yes,GA2750005_9358,GW,WL,031200020601,No,,4,,-83.97911336,30.834848530000045
GA9136030,ROSE CLEANERS/TEXACO STATION (FO,301 SOUTH BROAD ST,THOMASVILLE,,Georgia,31799,30.83488979,-83.97777173,Geocode,PointAddress,0,8,0,Closed UST(s),"Developed, Medium Intensity",103,0,No,,,,,Yes,GA2750005_9358,GW,WL,031200020601,No,,4,,-83.97777173,30.834889790000034
GA10001660,GREER SCHOOL,34 NORWICH STREET,BRUNSWICK,,Georgia,31520,31.13172305,-81.48470556,Geocode,StreetAddressExt,0,1,0,Closed UST(s),,,,,,,,,,,,,,,,4,,-81.48470556,31.131723050000062
GA920244,WISENBAKER SERVICE STATION,401 N ASHLEY ST,VALDOSTA,,Georgia,31601,30.83489074,-83.27936045,Geocode,PointAddress,0,5,0,Closed UST(s),"Developed, High Intensity",464,0,No,,,,,Yes,GA1850064_7784,GW,WL,031102030404,No,,4,,-83.27936045,30.83489074000005
GA370007,RAM QUICK CHANGE,415 S HUTCHINSON RD,ADEL,,Georgia,31620,31.13212713,-83.42161363,Geocode,PointAddress,1,0,0,Open UST(s),"Developed, Low Intensity",494,2,No,,,,,Yes,GA0750000_5527,GW,WL,031102030401,No,,4,,-83.42161363,31.13212713000007
GA9136010,CIRCLE K,US HWY 84,THOMASVILLE,,Georgia,31792,30.835116,-83.9434274,Geocode,StreetName,0,2,0,Closed UST(s),,,,,,,,,,,,,,,,4,,-83.9434274,30.835116000000028
GA10001856,EXIT 29 WATER POLLUTION CONTROL PLANT,314 S PORT PKWY,BRUNSWICK,,Georgia,31525,31.13277724,-81.58300077,Geocode,PointAddress,0,1,0,Closed UST(s),Non-Developed,136,42,No,,,,,No,,,,,No,,4,,-81.58300077,31.132777240000053
GA1360044,SUSIE QS #10,2112 SMITH AVE,THOMASVILLE,,Georgia,31792,30.83513052,-83.94729248,Geocode,PointAddress,4,0,0,Open UST(s),"Developed, Medium Intensity",216,19,No,,,,,No,,,,,No,,4,,-83.94729248,30.835130520000064
GA10001212,ADEL CITGO,1003 W 4TH ST,ADEL,,Georgia,31620,31.13430244,-83.43576244,Geocode,StreetAddress,3,0,0,Open UST(s),"Developed, Medium Intensity",457,0,No,,,,,Yes,GA0750000_5527,GW,WL,031102030401,No,,4,,-83.43576244,31.134302440000056
GA10001097,CIRCLE K #2723897,10317 HWY 84E,THOMASVILLE,,Georgia,31792,30.83518749,-83.94004408,Geocode,PointAddress,3,0,0,Open UST(s),"Developed, Medium Intensity",206,30,No,,,,,No,,,,,No,,4,,-83.94004408,30.835187490000067
GA9000405,CHEVRON #44158/FOLSOM CHEVRON,1011 WEST FOURTH ST,ADEL,,Georgia,31620,31.13432221,-83.43585239,Geocode,StreetAddress,0,4,0,Closed UST(s),"Developed, Medium Intensity",448,0,No,,,,,Yes,GA0750000_5527,GW,WL,031102030401,No,,4,,-83.43585239,31.13432221000005
GA1360146,EASY IN & OUT,2103 SMITH AVE,THOMASVILLE,,Georgia,31792,30.83521859,-83.94766599,Geocode,StreetAddress,2,3,0,Open UST(s),"Developed, High Intensity",232,17,No,,,,,No,,,,,No,,4,,-83.94766599,30.835218590000068
GA10000226,FORMER TIM FULLER PROPERTY,801 WEST FOURTH STREET,ADEL,,Georgia,31620,31.13432989,-83.43340898,Geocode,PointAddress,0,1,0,Closed UST(s),"Developed, Medium Intensity",657,0,No,,,,,Yes,GA0750000_5527,GW,WL,031102030401,No,,4,,-83.43340898,31.13432989000006
GA9035021,ONE STOP NO #4,2725 S MAIN ST,MOULTRIE,,Georgia,31768,31.13436736,-83.78183104,Geocode,PointAddress,3,4,0,Open UST(s),"Developed, Low Intensity",433,5,No,,,,,No,,,,,No,,4,,-83.78183104,31.134367360000056
GA9037030,WILLIAMS INVESTMENT CO,902 WEST 4TH STREET,ADEL,,Georgia,31620,31.13439152,-83.43476916,Geocode,PointAddress,0,3,0,Closed UST(s),"Developed, Medium Intensity",550,0,No,,,,,Yes,GA0750000_5527,GW,WL,031102030401,No,,4,,-83.43476916,31.134391520000065
GA1360069,COATS AMERICAN,1100 SMITH AVE,THOMASVILLE,,Georgia,31799,30.8352665,-83.9567838,Geocode,PointAddress,0,3,0,Closed UST(s),"Developed, High Intensity",257,0,No,,,,,No,,,,,No,,4,,-83.9567838,30.835266500000046
GA630108,BUILDERS SUPPLY CORP.,1400 4TH AVE.,BRUNSWICK,,Georgia,31520,31.13449709,-81.4823237,Geocode,PointAddress,0,1,0,Closed UST(s),"Developed, Low Intensity",384,0,No,,,,,Yes,GA1270047_23048,GW,WL,030702030201,No,,4,,-81.4823237,31.134497090000025
GA1360105,GOLDEN OIL CO,824 SMITH AVE,THOMASVILLE,,Georgia,31792,30.83543453,-83.96612044,Geocode,PointAddress,4,5,0,Open UST(s),"Developed, Medium Intensity",588,0,No,,,,,No,,,,,No,,4,,-83.96612044,30.835434530000043
GA370037,FAUSETTS SVC CENTER INC,715 WEST 4TH ST,ADEL,,Georgia,31620,31.13453121,-83.43280436,Geocode,PointAddress,0,8,0,Closed UST(s),"Developed, Medium Intensity",661,0,No,,,,,Yes,GA0750000_5527,GW,WL,031102030401,No,,4,,-83.43280436,31.134531210000034
GA1360178,METAL BUILDING INC,828 SMITH AVE,THOMASVILLE,,Georgia,31792,30.83543653,-83.96629144,Geocode,PointAddress,0,1,0,Closed UST(s),"Developed, Medium Intensity",592,0,No,,,,,No,,,,,No,,4,,-83.96629144,30.835436530000038
GA9037007,#943 NEIGHBORHOOD MART,711 W 4TH ST,ADEL,,Georgia,31620,31.13469916,-83.43217637,Geocode,PointAddress,2,0,0,Open UST(s),"Developed, High Intensity",623,0,No,,,,,Yes,GA0750000_5527,GW,WL,031102030401,No,,4,,-83.43217637,31.134699160000025
GA1360173,R C AUSLEY,805 SMITH AVE,THOMASVILLE,,Georgia,31792,30.83550148,-83.96687306,Geocode,PointAddress,0,3,0,Closed UST(s),"Developed, Medium Intensity",592,0,No,,,,,No,,,,,No,,4,,-83.96687306,30.83550148000006
GA370015,SUPER 8 TEXACO,1103 W FOURTH ST,ADEL,,Georgia,31620,31.13489235,-83.43719419,Geocode,PointAddress,0,5,0,Closed UST(s),"Developed, High Intensity",311,1,No,,,,,No,,,,,No,,4,,-83.43719419,31.13489235000003
GA370036,SHELL FOODS,1100 WEST FOURTH ST,ADEL,,Georgia,31620,31.13499116,-83.437027,Geocode,PointAddress,0,8,0,Closed UST(s),"Developed, High Intensity",325,1,No,,,,,No,,,,,No,,4,,-83.437027,31.134991160000027
GA370027,PURVIS SVC STA,219 SOUTH HUTCHINSON ST,ADEL,,Georgia,31620,31.13505243,-83.42265076,Geocode,PointAddress,0,7,0,Closed UST(s),"Developed, High Intensity",358,0,No,,,,,Yes,GA0750000_5527,GW,WL,031102030401,No,,4,,-83.42265076,31.13505243000003
GA370016,SUPER 8 PURE,1102 W FOURTH ST,ADEL,,Georgia,31620,31.13512771,-83.437286,Geocode,PointAddress,0,4,0,Closed UST(s),"Developed, High Intensity",309,1,No,,,,,No,,,,,No,,4,,-83.437286,31.135127710000063
GA1010019,PELHAM GRAIN CO INC,375 GLAUSIER ST,PELHAM,,Georgia,31779,31.1351382,-84.14837397,Geocode,StreetAddress,0,2,0,Closed UST(s),"Developed, Medium Intensity",455,38,No,,,,,Yes,GA2050003_8242,GW,WL,031200020404,No,,4,,-84.14837397,31.13513820000003
GA372000,QUICK CHANGE #4,600 WEST FOURTH ST,ADEL,,Georgia,31620,31.13520883,-83.43042904,Geocode,PointAddress,2,3,0,Open UST(s),"Developed, Medium Intensity",547,0,No,,,,,Yes,GA0750000_5527,GW,WL,031102030401,No,,4,,-83.43042904,31.135208830000067
GA10001511,EXXON FOOD MART,99 NASCAR BLVD,BRUNSWICK,,Georgia,31523,31.1353017,-81.56715037,Geocode,PointAddress,5,0,0,Open UST(s),"Developed, Open Space",118,41,No,,,,,Yes,GA1270185_16793,GW,WL,030702030201,No,,4,,-81.56715037,31.13530170000007
GA1360183,DIXIE GAS OIL CO INC #274,609 SMITH AVE,THOMASVILLE,,Georgia,31792,30.83552753,-83.96834375,Geocode,PointAddress,0,3,0,Closed UST(s),"Developed, High Intensity",495,0,No,,,,,No,,,,,No,,4,,-83.96834375,30.835527530000036
GA370038,DENT SERVICE STATION,314 WEST FOURTH ST,ADEL,,Georgia,31620,31.1360759,-83.42713726,Geocode,PointAddress,4,0,0,Open UST(s),"Developed, High Intensity",378,0,No,,,,,Yes,GA0750000_5527,GW,WL,031102030401,No,,4,,-83.42713726,31.136075900000037
GA9136084,GRANNYS,316 SMITH ST,THOMASVILLE,,Georgia,31792,30.83553048,-83.97505278,Geocode,PointAddress,2,0,0,Open UST(s),"Developed, High Intensity",138,0,No,,,,,Yes,GA2750005_9358,GW,WL,031200020601,No,,4,,-83.97505278,30.835530480000045
GA9063057,SPARKERS #7,2742 HWY 17 SOUTH,BRUNSWICK,,Georgia,31523,31.13616974,-81.57076148,Geocode,StreetAddress,3,0,0,Open UST(s),"Developed, Low Intensity",122,39,No,,,,,No,,,,,No,,4,,-81.57076148,31.13616974000007
GA1360003,ALLEN INDUSTRIES INC,210 SMITH AVE.,THOMASVILLE,,Georgia,31792,30.83554952,-83.97656439,Geocode,PointAddress,0,1,0,Closed UST(s),"Developed, Medium Intensity",116,0,No,,,,,Yes,GA2750005_9358,GW,WL,031200020601,No,,4,,-83.97656439,30.83554952000003
GA1360148,PLANTATION PETROLEUM CARD LOCK,501 SMITH AVE,THOMASVILLE,,Georgia,31792,30.83555052,-83.97135964,Geocode,PointAddress,0,4,0,Closed UST(s),"Developed, High Intensity",327,0,No,,,,,No,,,,,No,,4,,-83.97135964,30.835550520000027
GA630123,HOT DOG ALLEY,533 OCEAN BLVD,ST SIMONS ISLAND,,Georgia,31522,31.13629326,-81.39399733,Geocode,PointAddress,0,7,0,Closed UST(s),"Developed, Low Intensity",395,16,No,,,,,Yes,GA1270019_15319,GW,WL,030702030202,No,,4,,-81.39399733,31.13629326000006
GA1360158,PLANTATION PETROLEUM INC,403 SMITH AVE,THOMASVILLE,,Georgia,31792,30.83558449,-83.97419383,Geocode,PointAddress,5,3,0,Open UST(s),"Developed, High Intensity",164,0,No,,,,,Yes,GA2750005_9358,GW,WL,031200020601,No,,4,,-83.97419383,30.83558449000003
GA9037011,ADEL SHELL,1201 W FOURTH ST,ADEL,,Georgia,31620,31.13633988,-83.43991991,Geocode,StreetAddress,3,0,0,Open UST(s),"Developed, High Intensity",167,3,No,,,,,No,,,,,No,,4,,-83.43991991,31.136339880000037
GA10001219,THE PLAZA RESTAURANT INC,217 SOUTH BROAD STREET,THOMASVILLE,,Georgia,31792,30.83565667,-83.97844131,Geocode,PointAddress,0,2,0,Closed UST(s),"Developed, High Intensity",83,0,No,,,,,Yes,GA2750005_9358,GW,WL,031200020601,No,,4,,-83.97844131,30.83565667000005
GA630032,PARKER'S ST SIMONS,509 OCEAN BLVD,ST SIMONS ISLAND,,Georgia,31522,31.1364856,-81.39440818,Geocode,PointAddress,0,3,0,Closed UST(s),"Developed, Medium Intensity",397,15,No,,,,,Yes,GA1270019_15319,GW,WL,030702030202,No,,4,,-81.39440818,31.13648560000007
GA1360064,FLA ROCK INDS INC,510 WEST WASHINGTON ST,THOMASVILLE,,Georgia,31792,30.83572383,-83.98706879,Geocode,PointAddress,0,2,0,Closed UST(s),"Developed, Medium Intensity",162,0,No,,,,,Yes,GA2750005_9358,GW,WL,031200020601,No,,4,,-83.98706879,30.835723830000063
GA630127,FAMILY STORE #1,2764 US HWY 17 S,BRUNSWICK,,Georgia,31523,31.13651075,-81.57157693,Geocode,StreetAddress,4,0,0,Open UST(s),"Developed, Low Intensity",113,36,No,,,,,No,,,,,No,,4,,-81.57157693,31.13651075000007
GA920051,THE LERIO CORPORATION,1001 E HILL AVENUE,VALDOSTA,,Georgia,31603,30.83591331,-83.26515903,Geocode,PointAddress,0,1,0,Closed UST(s),"Developed, Open Space",141,2,No,,,,,No,,,,,No,,4,,-83.26515903,30.835913310000024
GA920055,TOMMY GRINER INC,505 N ASHLEY ST,VALDOSTA,,Georgia,31601,30.83601401,-83.2795018,Geocode,PointAddress,0,1,0,Closed UST(s),"Developed, High Intensity",537,0,No,,,,,Yes,GA1850064_7784,GW,WL,031102030404,No,,4,,-83.2795018,30.836014010000042
GA630092,CHEVRON STATION,507 OCEAN BLVD,ST SIMONS ISLAND,,Georgia,31522,31.13664048,-81.39476086,Geocode,PointAddress,0,4,0,Closed UST(s),"Developed, Medium Intensity",403,15,No,,,,,Yes,GA1270019_15319,GW,WL,030702030202,No,,4,,-81.39476086,31.13664048000004
GA920207,TOMMY GRINER INC,505 N ASHLEY ST,VALDOSTA,,Georgia,31601,30.83601401,-83.2795018,Geocode,PointAddress,0,2,0,Closed UST(s),"Developed, High Intensity",537,0,No,,,,,Yes,GA1850064_7784,GW,WL,031102030404,No,,4,,-83.2795018,30.836014010000042
GA9063030,GLYNN COUNTY PUBLIC WORKS DEPART,2001 DEMERE RD/DEMERE ANNEX BLDG,ST SIMONS ISLAND,,Georgia,31522,31.136697,-81.3893445,Geocode,StreetInt,0,2,0,Closed UST(s),"Developed, Low Intensity",500,21,No,,,,,Yes,GA1270019_15319,GW,WL,030702030202,No,,4,,-81.3893445,31.136697000000026
GA1360176,BST/THOMASVILLE SOC R2356,112 WRAY ST,THOMASVILLE,,Georgia,31799,30.83644772,-83.96707148,Geocode,PointAddress,0,2,0,Closed UST(s),"Developed, Low Intensity",600,0,No,,,,,No,,,,,No,,4,,-83.96707148,30.836447720000024
GA630052,PARKERS VILLAGE,501 OCEAN BLVD,ST SIMONS ISLAND,,Georgia,31522,31.13684947,-81.39520091,Geocode,PointAddress,3,0,0,Open UST(s),"Developed, Medium Intensity",394,15,No,,,,,Yes,GA1270019_15319,GW,WL,030702030202,No,,4,,-81.39520091,31.136849470000072
GA920111,FLOWERS BAKING CO THOMASVILLE,810 LAMAR ST,VALDOSTA,,Georgia,31601,30.83655625,-83.29454355,Geocode,PointAddress,0,1,0,Closed UST(s),"Developed, Low Intensity",784,3,No,,,,,Yes,GA1850064_7784,GW,WL,031102030404,No,,4,,-83.29454355,30.836556250000058
GA9063006,SERVICE STATION (FORMER),MALLORY DR @ OCEAN DR,ST SIMONS ISLAND,,Georgia,31522,31.136931,-81.395433,Geocode,StreetInt,0,1,0,Closed UST(s),"Developed, Medium Intensity",386,15,No,,,,,Yes,GA1270019_15319,GW,WL,030702030202,No,,4,,-81.395433,31.13693100000006
GA240038,OM FOOD MART - JASUI #2,4492 SECOND ST N,FOLKSTON,,Georgia,31537,30.83656267,-82.00711886,Geocode,PointAddress,3,3,0,Open UST(s),"Developed, Low Intensity",121,9,No,,,,,Yes,GA0490000_4794,GW,WL,030702040802,No,,4,,-82.00711886,30.836562670000035
GA9037012,ADEL BP,1200 W FOURTH ST,ADEL,,Georgia,31620,31.13695087,-83.4405179,Geocode,PointAddress,3,0,0,Open UST(s),"Developed, High Intensity",152,4,No,,,,,Yes,GA0750003_16924,GW,WL,031102030401,No,,4,,-83.4405179,31.136950870000078
GA1360177,BST/TMSVLGA/R2331,124 REMINGTON AVE,THOMASVILLE,,Georgia,31792,30.83661523,-83.97886078,Geocode,StreetAddress,1,3,0,Open UST(s),"Developed, High Intensity",83,0,No,,,,,Yes,GA2750005_9358,GW,WL,031200020601,No,,4,,-83.97886078,30.836615230000064
GA1360172,BRACEY LUMBER CO INC,300 WEST JEFFERSON ST,THOMASVILLE,,Georgia,31792,30.83675777,-83.98390954,Geocode,PointAddress,0,1,0,Closed UST(s),"Developed, Low Intensity",150,0,No,,,,,Yes,GA2750005_9358,GW,WL,031200020601,No,,4,,-83.98390954,30.836757770000077
GA370017,ADEL TRUCK PLAZA,1303 W FOURTH ST,ADEL,,Georgia,31620,31.13695679,-83.44094434,Geocode,PointAddress,0,6,0,Closed UST(s),"Developed, High Intensity",128,4,No,,,,,Yes,GA0750003_16924,GW,WL,031102030401,No,,4,,-83.44094434,31.136956790000056
GA500012,ECHOL CO BD OF EDUCATION,GIVE USE LOCATION,STATENVILLE,,Georgia,31601,30.83712,-83.28162,Geocode,Postal,0,2,0,Closed UST(s),,,,,,,,,,,,,,,,4,,-83.28162,30.837120000000027
GA10001157,BRUNSWICK TA SHOP,215 DUNGENESS DR,BRUNSWICK,,Georgia,31520,31.1372401,-81.58135454,Geocode,PointAddress,3,0,0,Open UST(s),"Developed, Medium Intensity",40,12,No,,,,,No,,,,,No,,4,,-81.58135454,31.137240100000042
GA920074,MEADOWS TEXACO,RT 6 BOX 5,VALDOSTA,,Georgia,31601,30.83712,-83.28162,Geocode,Postal,0,0,5,Open UST(s),,,,,,,,,,,,,,,,4,,-83.28162,30.837120000000027
GA9037016,MEGA MART,100 NORTH HUTCHENSON,ADEL,,Georgia,31620,31.13742899,-83.42350206,Geocode,PointAddress,4,0,0,Open UST(s),"Developed, Low Intensity",234,0,No,,,,,Yes,GA0750000_5525,GW,WL,031102030401,No,,4,,-83.42350206,31.137428990000046
GA920174,VAGA AMUSEMENT CO,ROUTE 1 BOX 33BB,VALDOSTA,,Georgia,31601,30.83712,-83.28162,Geocode,Postal,0,1,0,Closed UST(s),,,,,,,,,,,,,,,,4,,-83.28162,30.837120000000027
GA370002,CITY HALL,112 NORTH PARRISH ST,ADEL,,Georgia,31620,31.13746136,-83.42247223,Geocode,StreetAddress,0,3,0,Closed UST(s),"Developed, Medium Intensity",250,0,No,,,,,Yes,GA0750000_5525,GW,WL,031102030401,No,,4,,-83.42247223,31.13746136000003
GA920192,ALDEAN DUKES LOGGING,RT 9 BOX 244B,VALDOSTA,,Georgia,31601,30.83712,-83.28162,Geocode,Postal,0,3,0,Closed UST(s),,,,,,,,,,,,,,,,4,,-83.28162,30.837120000000027
GA9035023,SHREEJI S & B INVESTMENT INC,515 TWENTY SIXTH AVE,MOULTRIE,,Georgia,31768,31.13754614,-83.78000715,Geocode,StreetAddress,3,0,0,Open UST(s),"Developed, Low Intensity",569,7,No,,,,,Yes,GA0710004_5400,GW,WL,031102030502,No,,4,,-83.78000715,31.13754614000004
GA9092022,LOWNDES STATE PRISON,P O BOX 310,VALDOSTA,,Georgia,31601,30.83712,-83.28162,Geocode,Postal,0,1,0,Closed UST(s),,,,,,,,,,,,,,,,4,,-83.28162,30.837120000000027
GA10002582,75 BARNEYVILLE RD,121 N HUTCHINSON AVE,ADEL,,Georgia,31620,31.13784534,-83.42371161,Geocode,PointAddress,1,0,0,Open UST(s),"Developed, Low Intensity",223,0,No,,,,,Yes,GA0750000_5525,GW,WL,031102030401,No,,4,,-83.42371161,31.13784534000007
GA9092140,GA DOT #10492 LOWNDES COUNTY ARE,RT 4 BOX 36,VALDOSTA,,Georgia,31601,30.83712,-83.28162,Geocode,Postal,0,1,0,Closed UST(s),,,,,,,,,,,,,,,,4,,-83.28162,30.837120000000027
GA1360001,DAN BAIN AUTO SERVICE CENTER,201 REMINGTON AVE,THOMASVILLE,,Georgia,31792,30.83744341,-83.97760934,Geocode,PointAddress,0,0,4,Open UST(s),"Developed, Medium Intensity",168,0,No,,,,,No,,,,,No,,4,,-83.97760934,30.83744341000005
GA630196,BRUNSWICK TA,185 DUNGENESS DR,BRUNSWICK,,Georgia,31525,31.13793319,-81.58097645,Geocode,PointAddress,6,7,0,Open UST(s),"Developed, High Intensity",35,11,No,,,,,No,,,,,No,,4,,-81.58097645,31.13793319000007
GA10002176,FORMER MONKS CURB STORE & SERVICE STATION,1306 EAST HILL AVE,VALDOSTA,,Georgia,31601,30.83801147,-83.25994177,Geocode,PointAddress,0,1,0,Closed UST(s),"Developed, Medium Intensity",108,13,No,,,,,Yes,GA1850282_7898,GW,WL,031102021001,No,,4,,-83.25994177,30.838011470000026
GA10001283,SANDERSON FARMS INC,3140 JM DR,ADEL,,Georgia,31620,31.1379445,-83.4256001,Geocode,Postal,2,0,0,Open UST(s),,,,,,,,,,,,,,,,4,,-83.4256001,31.13794450000006
GA1360104,THOMAS COUNTY EXTENTION SERVICE,207 N. MADISON ST,THOMASVILLE,,Georgia,31792,30.83808934,-83.98214454,Geocode,StreetAddress,0,4,0,Closed UST(s),"Developed, High Intensity",158,0,No,,,,,Yes,GA2750005_9358,GW,WL,031200020601,No,,4,,-83.98214454,30.838089340000067
GA9037034,REED BINGHAM STATE PARK,RT 2 BOX 394B,ADEL,,Georgia,31620,31.1379445,-83.4256001,Geocode,Postal,0,1,1,Open UST(s),,,,,,,,,,,,,,,,4,,-83.4256001,31.13794450000006
GA920228,GORDON'S FOOD MART #962,209 WEST GORDON ST,VALDOSTA,,Georgia,31601,30.83830186,-83.28563314,Geocode,PointAddress,4,0,1,Open UST(s),"Developed, Low Intensity",711,1,No,,,,,Yes,GA1850064_7784,GW,WL,031102030404,No,,4,,-83.28563314,30.83830186000006
GA630131,OM SHREEM INC DBA SHIVS MARKET #1,1001 FIRST AVE,BRUNSWICK,,Georgia,31525,31.13798079,-81.48672773,Geocode,PointAddress,3,0,0,Open UST(s),"Developed, Open Space",1124,0,No,,,,,Yes,GA1270047_23048,GW,WL,030702030201,No,,4,,-81.48672773,31.13798079000003
GA9136035,VACANT LOT/PAC-A SAC #1/CITY OF,500 BLOCK OF REMINGTON AVE,THOMASVILLE,,Georgia,31792,30.83838786,-83.97180719,Geocode,StreetAddress,0,3,0,Closed UST(s),"Developed, Open Space",363,0,No,,,,,No,,,,,No,,4,,-83.97180719,30.83838786000007
GA370013,GA DOT #10419/COOK CO MAINT HQ,106 TENNESSEE RD,ADEL,,Georgia,31620,31.13810522,-83.44560158,Geocode,PointAddress,0,3,0,Closed UST(s),"Developed, High Intensity",12,4,No,,,,,No,,,,,No,,4,,-83.44560158,31.138105220000057
GA920167,ALLIED BUILDING MATERIAL,1047 CYPRESS ST,VALDOSTA,,Georgia,31601,30.83841552,-83.26636847,Geocode,PointAddress,0,1,0,Closed UST(s),"Developed, Medium Intensity",369,3,No,,,,,No,,,,,No,,4,,-83.26636847,30.83841552000007
GA9037035,ADEL TRUCK PLAZA,1503 W FOURTH ST,ADEL,,Georgia,31620,31.13822087,-83.4435078,Geocode,StreetAddress,6,0,0,Open UST(s),"Developed, High Intensity",29,4,No,,,,,No,,,,,No,,4,,-83.4435078,31.138220870000055
GA9037021,DORSEY'S SUPERMARKET,103 BROOKSIDE DRIVE,ADEL,,Georgia,31620,31.13834252,-83.4172419,Geocode,PointAddress,2,0,0,Open UST(s),"Developed, Low Intensity",303,17,No,,,,,Yes,GA0750000_5525,GW,WL,031102030401,No,,4,,-83.4172419,31.138342520000037
GA630187,BRUNSWICK TRUCK STOP,I-95 @ EXIT 29 / 110 DUNGENESS DR,BRUNSWICK,,Georgia,31523,31.13852996,-81.58071694,Geocode,PointAddress,5,6,0,Open UST(s),"Developed, High Intensity",34,11,No,,,,,No,,,,,No,,4,,-81.58071694,31.138529960000028
GA9037023,COOK COUNTY AIRPORT,AIRPORT RD,ADEL,,Georgia,31620,31.13856465,-83.4480469,Geocode,StreetName,0,3,0,Closed UST(s),,,,,,,,,,,,,,,,4,,-83.4480469,31.138564650000035
GA10001689,GISCO MARINA,101 GISCO POINT DR,BRUNSWICK,,Georgia,31523,31.1386866,-81.5912674,Geocode,Postal,0,1,0,Closed UST(s),,,,,,,,,,,,,,,,4,,-81.5912674,31.138686600000028
GA630170,CONCRETE PRODUCTS INC,DARTMOUTH ST,BRUNSWICK,,Georgia,31520,31.13893388,-81.48871932,Geocode,StreetName,0,1,0,Closed UST(s),,,,,,,,,,,,,,,,4,,-81.48871932,31.138933880000025
GA9063138,FLYING J TRAVEL PLAZA #627,2990 US HWY 17 SOUTH,BRUNSWICK,,Georgia,31525,31.13942889,-81.57882274,Geocode,PointAddress,6,0,0,Open UST(s),"Developed, Low Intensity",35,11,No,,,,,Yes,GA1270155_6619,GW,WL,030702030201,No,,4,,-81.57882274,31.139428890000033
GA9100024,NEWBERRY WILLIAMS FARM,451 HWY 45 S,COLQUITT,,Georgia,39837,31.13944077,-84.76265804,Geocode,PointAddress,0,1,0,Closed UST(s),Non-Developed,12,5,No,,,,,No,,,,,No,,4,,-84.76265804,31.13944077000008
GA9148054,JOHN T THRIFT,3840 NEEDHAM RD,WAYCROSS,,Georgia,31503,31.13955732,-82.41649112,Geocode,PointAddress,0,0,2,Open UST(s),Non-Developed,5,1,No,,,,,No,,,,,No,,4,,-82.41649112,31.13955732000005
GA9037031,COOK COUNTY COURTHOUSE,212 PARISH AVENUE,ADEL,,Georgia,31620,31.13961373,-83.42325191,Geocode,PointAddress,0,1,0,Closed UST(s),"Developed, Medium Intensity",252,0,No,,,,,Yes,GA0750000_5525,GW,WL,031102030401,No,,4,,-83.42325191,31.139613730000065
GA9037001,DIXIE #655/DIXIE,300 NORTH HUTCHINSON ST,ADEL,,Georgia,31620,31.13978757,-83.42434284,Geocode,PointAddress,0,4,3,Open UST(s),"Developed, Medium Intensity",249,0,No,,,,,Yes,GA0750000_5525,GW,WL,031102030401,No,,4,,-83.42434284,31.139787570000067
GA920220,ALLIED BUILDING MATERIAL,1047 CYPRESS ST,VALDOSTA,,Georgia,31601,30.83841552,-83.26636847,Geocode,PointAddress,0,1,0,Closed UST(s),"Developed, Medium Intensity",369,3,No,,,,,No,,,,,No,,4,,-83.26636847,30.83841552000007
GA9063053,GLYNN CO FIRE DEPT #6,3320 US HWY 17 S (JUST SOUTH,BRUNSWICK,,Georgia,31521,31.13979258,-81.58861524,Geocode,PointAddress,0,8,0,Closed UST(s),"Developed, Low Intensity",129,43,No,,,,,Yes,GA1270156_6620,GW,WL,030702030302,No,,4,,-81.58861524,31.139792580000062
GA9092030,B & B Food Mart,801 NORTH PATTERSON,VALDOSTA,,Georgia,31601,30.8386526,-83.28291269,Geocode,PointAddress,0,3,3,Open UST(s),"Developed, Medium Intensity",574,0,No,,,,,Yes,GA1850064_7784,GW,WL,031102030404,No,,4,,-83.28291269,30.838652600000046
GA9037017,PUBLIC WORK DEPT,404 N POPLAR ST,ADEL,,Georgia,31620,31.13983226,-83.42878277,Geocode,StreetAddress,0,2,0,Closed UST(s),"Developed, Open Space",397,0,No,,,,,No,,,,,No,,4,,-83.42878277,31.13983226000005
GA9092083,STOP AND SHOP,1408 E HILL AVE,VALDOSTA,,Georgia,31601,30.83879244,-83.25755024,Geocode,PointAddress,3,0,0,Open UST(s),"Developed, High Intensity",200,24,No,,,,,Yes,GA1850282_7898,GW,WL,031102021001,No,,4,,-83.25755024,30.838792440000077
GA370034,WISEMAN OIL CO INC,305 NORTH BURWELL AVE,ADEL,,Georgia,31620,31.1402837,-83.42549377,Geocode,PointAddress,0,4,0,Closed UST(s),"Developed, Medium Intensity",295,0,No,,,,,Yes,GA0750000_5525,GW,WL,031102030401,No,,4,,-83.42549377,31.140283700000055
GA920020,COLONIAL BAKERY,707 N ASHLEY ST,VALDOSTA,,Georgia,31602,30.83903798,-83.27989867,Geocode,PointAddress,0,1,0,Closed UST(s),"Developed, High Intensity",656,0,No,,,,,Yes,GA1850064_7784,GW,WL,031102030404,No,,4,,-83.27989867,30.839037980000057
GA10001957,THE LODGE GOLF COURSE MAINTENANCE FACILITY,100 RETREAT AVE,ST SIMONS ISLAND,,Georgia,31522,31.14031788,-81.40647658,Geocode,PointAddress,0,1,0,Closed UST(s),"Developed, Open Space",11,0,No,,,,,Yes,GA1270019_15319,GW,WL,030702030202,Yes,,4,,-81.40647658,31.140317880000055
GA9020092,MOM & POP POP STORES #7,100 ALEX DR,SAINT MARYS,,Georgia,31558,30.83906514,-81.57548444,Geocode,StreetAddress,4,0,0,Open UST(s),"Developed, Open Space",69,5,No,,,,,No,,,,,No,,4,,-81.57548444,30.83906514000006
GA630042,LIL CHAMP #324,803 ALBERMARLE ST,BRUNSWICK,,Georgia,31520,31.14037226,-81.48912387,Geocode,StreetAddress,0,3,0,Closed UST(s),"Developed, Open Space",1489,0,No,,,,,No,,,,,No,,4,,-81.48912387,31.14037226000005
GA10001921,RaceWay #6868 - Thomasville,13883 HWY 19 S,THOMASVILLE,,Georgia,31792,30.83906793,-83.94406214,Geocode,PointAddress,3,0,0,Open UST(s),"Developed, Medium Intensity",105,11,No,,,,,No,,,,,No,,4,,-83.94406214,30.839067930000056
GA9037009,QUICK CHANGE #6,315 N HUTCHINSON,ADEL,,Georgia,31620,31.14055443,-83.42468017,Geocode,PointAddress,3,0,0,Open UST(s),"Developed, Medium Intensity",339,0,No,,,,,Yes,GA0750000_5525,GW,WL,031102030401,No,,4,,-83.42468017,31.140554430000066
GA4240015,FLASH FOODS #123,HWY 40 EAST & CAMP PICKNEY RD,FOLKSTON,,Georgia,31537,30.83931,-81.9775215,Geocode,StreetInt,2,3,0,Open UST(s),Non-Developed,240,9,No,,,,,No,,,,,No,,4,,-81.9775215,30.83931000000007
GA9136051,CHARLES GAY PROPERTY,309 BROAD ST,THOMASVILLE,,Georgia,31792,30.83935055,-83.98207734,Geocode,StreetAddress,0,3,0,Closed UST(s),"Developed, Medium Intensity",269,0,No,,,,,Yes,GA2750005_9358,GW,WL,031200020601,No,,4,,-83.98207734,30.839350550000063
GA9063086,CRAB TRAP RESTAURANT,1209 OCEAN BLVD,ST SIMONS ISLAND,,Georgia,31522,31.14073576,-81.38136619,Geocode,PointAddress,0,3,0,Closed UST(s),"Developed, Low Intensity",423,30,No,,,,,Yes,GA1270015_6525,GW,WL,030702030202,No,,4,,-81.38136619,31.14073576000004
GA630075,CITY OF BRUNSWICK PUBLIC WORKS D,300 PRINCE ST.,BRUNSWICK,,Georgia,31520,31.14083341,-81.49262549,Geocode,PointAddress,0,4,0,Closed UST(s),"Developed, Low Intensity",940,0,No,,,,,No,,,,,No,,4,,-81.49262549,31.140833410000027
